{"version": 0.6, "generator": "Overpass API 0.7.62.5 1bd436f1", "osm3s": {"timestamp_osm_base": "2025-03-24T23:57:15Z", "copyright": "The data included in this document is from www.openstreetmap.org. The data is made available under ODbL."}, "elements": [{"type": "node", "id": 1164544879, "lat": -34.9141638, "lon": -54.9524985}, {"type": "node", "id": 1325627827, "lat": -34.9046651, "lon": -54.9521254}, {"type": "node", "id": 1359994735, "lat": -34.9019584, "lon": -54.9627738}, {"type": "node", "id": 1359994746, "lat": -34.8999308, "lon": -54.9578853}, {"type": "node", "id": 1359994753, "lat": -34.9046526, "lon": -54.953523}, {"type": "node", "id": 1359994760, "lat": -34.89799, "lon": -54.9584572}, {"type": "node", "id": 1359997750, "lat": -34.9010727, "lon": -54.9588854}, {"type": "node", "id": 1359997766, "lat": -34.9011627, "lon": -54.9588704}, {"type": "node", "id": 1360006589, "lat": -34.9045712, "lon": -54.9632325}, {"type": "node", "id": 1360006593, "lat": -34.9028422, "lon": -54.9600269}, {"type": "node", "id": 1360006596, "lat": -34.9045946, "lon": -54.9599656}, {"type": "node", "id": 1360006616, "lat": -34.9064409, "lon": -54.9525541}, {"type": "node", "id": 1360006620, "lat": -34.906434, "lon": -54.9599185}, {"type": "node", "id": 1360006643, "lat": -34.905503, "lon": -54.9525879}, {"type": "node", "id": 1360006660, "lat": -34.9068133, "lon": -54.9523629}, {"type": "node", "id": 1360014914, "lat": -34.9101545, "lon": -54.9597479}, {"type": "node", "id": 1360014923, "lat": -34.9045978, "lon": -54.9609395}, {"type": "node", "id": 1360014961, "lat": -34.9118956, "lon": -54.959641}, {"type": "node", "id": 1360014982, "lat": -34.9083764, "lon": -54.9598448, "tags": {"highway": "traffic_signals"}}, {"type": "node", "id": 1360039537, "lat": -34.8959893, "lon": -54.9534514, "tags": {"highway": "traffic_signals"}}, {"type": "node", "id": 1360039538, "lat": -34.9126954, "lon": -54.9554442}, {"type": "node", "id": 1360039539, "lat": -34.9003253, "lon": -54.957863}, {"type": "node", "id": 1360039549, "lat": -34.896932, "lon": -54.953527}, {"type": "node", "id": 1360039565, "lat": -34.9131703, "lon": -54.9525308}, {"type": "node", "id": 1360039596, "lat": -34.8979948, "lon": -54.9535253}, {"type": "node", "id": 1360039603, "lat": -34.9046816, "lon": -54.9502932}, {"type": "node", "id": 1360051181, "lat": -34.8958118, "lon": -54.9610997}, {"type": "node", "id": 1361065870, "lat": -34.9091106, "lon": -54.9533313}, {"type": "node", "id": 1361065874, "lat": -34.9055122, "lon": -54.9534611}, {"type": "node", "id": 1361065875, "lat": -34.9117599, "lon": -54.9532298}, {"type": "node", "id": 1361065879, "lat": -34.9073307, "lon": -54.9534047}, {"type": "node", "id": 1361077003, "lat": -34.8942528, "lon": -54.9618016}, {"type": "node", "id": 1361077005, "lat": -34.8935387, "lon": -54.9617738}, {"type": "node", "id": 1361077029, "lat": -34.8938702, "lon": -54.9618904}, {"type": "node", "id": 1361077044, "lat": -34.8940635, "lon": -54.9618801}, {"type": "node", "id": 1361077060, "lat": -34.908206, "lon": -54.9533705, "tags": {"highway": "traffic_signals"}}, {"type": "node", "id": 1361077066, "lat": -34.8964508, "lon": -54.9606131}, {"type": "node", "id": 1361077074, "lat": -34.8962442, "lon": -54.9608245}, {"type": "node", "id": 1361077078, "lat": -34.8944513, "lon": -54.9617151}, {"type": "node", "id": 1361077081, "lat": -34.8960949, "lon": -54.9609553}, {"type": "node", "id": 1361077095, "lat": -34.8959612, "lon": -54.9610318}, {"type": "node", "id": 1762766119, "lat": -34.8990123, "lon": -54.9535994}, {"type": "node", "id": 1762766122, "lat": -34.9036726, "lon": -54.9534707}, {"type": "node", "id": 1762766133, "lat": -34.8962936, "lon": -54.9534984}, {"type": "node", "id": 1762766134, "lat": -34.897994, "lon": -54.9536021}, {"type": "node", "id": 1762766144, "lat": -34.9019211, "lon": -54.9522834}, {"type": "node", "id": 1762766176, "lat": -34.8962849, "lon": -54.9535795}, {"type": "node", "id": 1762766185, "lat": -34.9019209, "lon": -54.9534945, "tags": {"highway": "traffic_signals"}}, {"type": "node", "id": 1762766190, "lat": -34.899014, "lon": -54.9535192}, {"type": "node", "id": 1762766202, "lat": -34.8966602, "lon": -54.9535208}, {"type": "node", "id": 1762766238, "lat": -34.8969516, "lon": -54.9536116}, {"type": "node", "id": 1762766288, "lat": -34.8977088, "lon": -54.9536047}, {"type": "node", "id": 1762766318, "lat": -34.8987117, "lon": -54.9536002}, {"type": "node", "id": 1762766328, "lat": -34.9036716, "lon": -54.9535606}, {"type": "node", "id": 1762766368, "lat": -34.8959791, "lon": -54.9535585, "tags": {"highway": "traffic_signals"}}, {"type": "node", "id": 1762766385, "lat": -34.8955066, "lon": -54.9533983}, {"type": "node", "id": 1762793799, "lat": -34.9083463, "lon": -54.9521948}, {"type": "node", "id": 1884963749, "lat": -34.8977095, "lon": -54.953528}, {"type": "node", "id": 1884963750, "lat": -34.9002184, "lon": -54.9535989}, {"type": "node", "id": 1884963751, "lat": -34.9002182, "lon": -54.9535088}, {"type": "node", "id": 1884963757, "lat": -34.9008984, "lon": -54.9535003}, {"type": "node", "id": 1884963758, "lat": -34.9008863, "lon": -54.9535877}, {"type": "node", "id": 1884963760, "lat": -34.9009656, "lon": -54.9556189}, {"type": "node", "id": 1884963762, "lat": -34.901009, "lon": -54.9578444}, {"type": "node", "id": 1884963764, "lat": -34.9019304, "lon": -54.9588687, "tags": {"highway": "traffic_signals"}}, {"type": "node", "id": 1884963766, "lat": -34.90193, "lon": -54.9578239, "tags": {"highway": "traffic_signals"}}, {"type": "node", "id": 1884963767, "lat": -34.9019249, "lon": -54.9567224, "tags": {"highway": "traffic_signals"}}, {"type": "node", "id": 1884963769, "lat": -34.9019127, "lon": -54.9555986, "tags": {"highway": "traffic_signals"}}, {"type": "node", "id": 1884963771, "lat": -34.9019052, "lon": -54.9544397}, {"type": "node", "id": 1884963773, "lat": -34.9019191, "lon": -54.9535754, "tags": {"highway": "traffic_signals"}}, {"type": "node", "id": 1884963775, "lat": -34.9019397, "lon": -54.9600703}, {"type": "node", "id": 1884963777, "lat": -34.9019475, "lon": -54.9609836}, {"type": "node", "id": 1884963779, "lat": -34.9019605, "lon": -54.9621909}, {"type": "node", "id": 1884963781, "lat": -34.9028163, "lon": -54.9555861}, {"type": "node", "id": 1884963787, "lat": -34.9028069, "lon": -54.9535702}, {"type": "node", "id": 1884963798, "lat": -34.9028364, "lon": -54.9577994}, {"type": "node", "id": 1884963805, "lat": -34.9029115, "lon": -54.9534839}, {"type": "node", "id": 1884963811, "lat": -34.9037092, "lon": -54.9555744}, {"type": "node", "id": 1884963816, "lat": -34.9037084, "lon": -54.9577724}, {"type": "node", "id": 1884963820, "lat": -34.9037246, "lon": -54.959997}, {"type": "node", "id": 1884963827, "lat": -34.9045919, "lon": -54.9621005}, {"type": "node", "id": 1884963829, "lat": -34.9046124, "lon": -54.9588329}, {"type": "node", "id": 1884963831, "lat": -34.9046248, "lon": -54.9577624}, {"type": "node", "id": 1884963833, "lat": -34.904639, "lon": -54.9566592, "tags": {"highway": "traffic_signals"}}, {"type": "node", "id": 1884963839, "lat": -34.9046456, "lon": -54.9555744}, {"type": "node", "id": 1884963841, "lat": -34.9046453, "lon": -54.9544479}, {"type": "node", "id": 1884963848, "lat": -34.9055478, "lon": -54.9555551}, {"type": "node", "id": 1884963851, "lat": -34.9055491, "lon": -54.9577329}, {"type": "node", "id": 1884963855, "lat": -34.9055708, "lon": -54.9599411}, {"type": "node", "id": 1884963869, "lat": -34.9064406, "lon": -54.9555426}, {"type": "node", "id": 1884963870, "lat": -34.90644, "lon": -54.9534339}, {"type": "node", "id": 1884963887, "lat": -34.9073263, "lon": -54.9598792, "tags": {"highway": "traffic_signals"}}, {"type": "node", "id": 1884963899, "lat": -34.9073321, "lon": -54.9555219}, {"type": "node", "id": 1884963903, "lat": -34.9073412, "lon": -54.9523312}, {"type": "node", "id": 1884963910, "lat": -34.908194, "lon": -54.9522781}, {"type": "node", "id": 1884963923, "lat": -34.908249, "lon": -54.955516, "tags": {"highway": "traffic_signals"}}, {"type": "node", "id": 1884963933, "lat": -34.9090898, "lon": -54.9522501}, {"type": "node", "id": 1884963935, "lat": -34.9091554, "lon": -54.9555003}, {"type": "node", "id": 1884963939, "lat": -34.909248, "lon": -54.9597964, "tags": {"highway": "traffic_signals"}}, {"type": "node", "id": 1884963943, "lat": -34.9099782, "lon": -54.9523556}, {"type": "node", "id": 1884963944, "lat": -34.9099859, "lon": -54.9533114}, {"type": "node", "id": 1884963947, "lat": -34.9100364, "lon": -54.9554925}, {"type": "node", "id": 1884963960, "lat": -34.9108924, "lon": -54.9532688}, {"type": "node", "id": 1884963962, "lat": -34.9108752, "lon": -54.9523875}, {"type": "node", "id": 1884963964, "lat": -34.9109299, "lon": -54.9554845}, {"type": "node", "id": 1884963970, "lat": -34.9110157, "lon": -54.9596928}, {"type": "node", "id": 1884963980, "lat": -34.9117457, "lon": -54.9524495}, {"type": "node", "id": 1884963990, "lat": -34.9118031, "lon": -54.9554732}, {"type": "node", "id": 1886135179, "lat": -34.8941888, "lon": -54.9532534, "tags": {"highway": "give_way"}}, {"type": "node", "id": 1886135180, "lat": -34.8943166, "lon": -54.9532815}, {"type": "node", "id": 1886135184, "lat": -34.8942461, "lon": -54.9532711}, {"type": "node", "id": 1886135193, "lat": -34.9046532, "lon": -54.9534517}, {"type": "node", "id": 1886135197, "lat": -34.8941194, "lon": -54.9532058}, {"type": "node", "id": 1918168726, "lat": -34.8987828, "lon": -54.9535228}, {"type": "node", "id": 1918168743, "lat": -34.8995199, "lon": -54.9535153}, {"type": "node", "id": 1918168744, "lat": -34.8995186, "lon": -54.9535915}, {"type": "node", "id": 1919675013, "lat": -34.8968051, "lon": -54.9604162}, {"type": "node", "id": 1919675049, "lat": -34.8976125, "lon": -54.9601467}, {"type": "node", "id": 1919675125, "lat": -34.8999728, "lon": -54.9594905}, {"type": "node", "id": 1919675143, "lat": -34.900331, "lon": -54.9592524}, {"type": "node", "id": 1919675160, "lat": -34.9007501, "lon": -54.9590027}, {"type": "node", "id": 1953144074, "lat": -34.9126511, "lon": -54.9532118}, {"type": "node", "id": 1957709186, "lat": -34.8987116, "lon": -54.9535251}, {"type": "node", "id": 1961589739, "lat": -34.9063893, "lon": -54.9525769}, {"type": "node", "id": 2266533537, "lat": -34.8937181, "lon": -54.9618602}, {"type": "node", "id": 2266533542, "lat": -34.8939946, "lon": -54.9618996}, {"type": "node", "id": 2266533543, "lat": -34.8946473, "lon": -54.9533139}, {"type": "node", "id": 2363944521, "lat": -34.9075449, "lon": -54.9578419, "tags": {"name": "Este\u00f1o", "tourism": "hotel"}}, {"type": "node", "id": 2363944527, "lat": -34.9040593, "lon": -54.9517093, "tags": {"amenity": "place_of_worship", "building": "yes", "denomination": "catholic", "name": "Capilla", "religion": "christian"}}, {"type": "node", "id": 2365191568, "lat": -34.8980229, "lon": -54.9583989}, {"type": "node", "id": 2365191569, "lat": -34.8980217, "lon": -54.957965}, {"type": "node", "id": 2365191570, "lat": -34.8996215, "lon": -54.9579475}, {"type": "node", "id": 2365196113, "lat": -34.9074381, "lon": -54.9580738, "tags": {"addr:city": "Maldonado", "addr:country": "UY", "addr:housenumber": "789", "addr:street": "Ituzaing\u00f3", "name": "Museo Mazzoni", "phone": "+598 4222 1107", "tourism": "museum"}}, {"type": "node", "id": 2365196114, "lat": -34.9075824, "lon": -54.9586584, "tags": {"name": "Motociclo", "shop": "electronics"}}, {"type": "node", "id": 2365196115, "lat": -34.9074854, "lon": -54.9578437, "tags": {"name": "Dilusso", "shop": "clothes"}}, {"type": "node", "id": 2365229888, "lat": -34.9065165, "lon": -54.9533341, "tags": {"amenity": "pharmacy", "healthcare": "pharmacy", "name": "Maldonado"}}, {"type": "node", "id": 2365904958, "lat": -34.9020088, "lon": -54.9577306, "tags": {"amenity": "restaurant", "cuisine": "burger", "name": "La Masa"}}, {"type": "node", "id": 2365904960, "lat": -34.9020314, "lon": -54.9620766, "tags": {"name": "Minimercado William", "shop": "convenience"}}, {"type": "node", "id": 2365904980, "lat": -34.9076549, "lon": -54.9597849}, {"type": "node", "id": 2365904981, "lat": -34.9079824, "lon": -54.9597671}, {"type": "node", "id": 2365904982, "lat": -34.9079709, "lon": -54.9594543}, {"type": "node", "id": 2365904983, "lat": -34.9076435, "lon": -54.9594721}, {"type": "node", "id": 2365904984, "lat": -34.9076838, "lon": -54.9590694}, {"type": "node", "id": 2365904985, "lat": -34.9078696, "lon": -54.9590611}, {"type": "node", "id": 2365904986, "lat": -34.907863, "lon": -54.9588445}, {"type": "node", "id": 2365904987, "lat": -34.9076772, "lon": -54.9588529}, {"type": "node", "id": 2365904989, "lat": -34.9068076, "lon": -54.9593163}, {"type": "node", "id": 2365904990, "lat": -34.9070608, "lon": -54.9593137}, {"type": "node", "id": 2365904991, "lat": -34.907058, "lon": -54.9590273}, {"type": "node", "id": 2365904992, "lat": -34.90689, "lon": -54.9590264}, {"type": "node", "id": 2365904993, "lat": -34.9068906, "lon": -54.9588588}, {"type": "node", "id": 2365904994, "lat": -34.9068327, "lon": -54.9588556}, {"type": "node", "id": 2365904995, "lat": -34.9068338, "lon": -54.9590121}, {"type": "node", "id": 2365904996, "lat": -34.9068055, "lon": -54.9590124}, {"type": "node", "id": 2365904998, "lat": -34.9073914, "lon": -54.956671, "tags": {"name": "Bazar San Jose", "shop": "variety_store"}}, {"type": "node", "id": 2365905011, "lat": -34.9065757, "lon": -54.9584878, "tags": {"amenity": "car_wash", "name": "Gomeria El Rey", "shop": "tyres"}}, {"type": "node", "id": 2365905012, "lat": -34.9063463, "lon": -54.9588839, "tags": {"addr:city": "Maldonado", "addr:street": "18 de Julio", "amenity": "fast_food", "cuisine": "chicken", "name": "Don Pico", "source": "Reconocimiento cartogr\u00e1fico 2016 por KG."}}, {"type": "node", "id": 2365905018, "lat": -34.9058225, "lon": -54.9575836, "tags": {"name": "Cabral Electrodom\u00e9sticos", "shop": "electronics"}}, {"type": "node", "id": 2365905023, "lat": -34.907392, "lon": -54.960332, "tags": {"name": "Coussan Hnos", "shop": "bicycle"}}, {"type": "node", "id": 2365905024, "lat": -34.9069169, "lon": -54.9599572, "tags": {"addr:city": "Maldonado", "addr:street": "Jos\u00e9 Dodera", "name": "Multielectr\u00f3nica", "shop": "electronics", "source": "Reconocimiento cartogr\u00e1fico 2016 por KG."}}, {"type": "node", "id": 2365930635, "lat": -34.9054753, "lon": -54.9578211, "tags": {"amenity": "pharmacy", "healthcare": "pharmacy", "name": "Santa Teresa 2"}}, {"type": "node", "id": 2365930637, "lat": -34.9076826, "lon": -54.9575615, "tags": {"addr:city": "Maldonado", "addr:country": "UY", "addr:street": "Sarand\u00ed", "amenity": "pharmacy", "healthcare": "pharmacy", "name": "Santa Teresa"}}, {"type": "node", "id": 2366581183, "lat": -34.8968504, "lon": -54.9536077}, {"type": "node", "id": 2366581184, "lat": -34.8986496, "lon": -54.9535991, "tags": {"highway": "crossing"}}, {"type": "node", "id": 2366581187, "lat": -34.9047328, "lon": -54.95344}, {"type": "node", "id": 2366581193, "lat": -34.904843, "lon": -54.9535023}, {"type": "node", "id": 2366581194, "lat": -34.9049116, "lon": -54.9534981}, {"type": "node", "id": 2366581196, "lat": -34.904856, "lon": -54.9535015}, {"type": "node", "id": 2367580216, "lat": -34.9001141, "lon": -54.9577221, "tags": {"amenity": "place_of_worship", "building": "yes", "denomination": "catholic", "name": "Capilla de los Treinta y Tres", "religion": "christian"}}, {"type": "node", "id": 2367580218, "lat": -34.9017878, "lon": -54.9590083, "tags": {"amenity": "restaurant", "cuisine": "regional", "name": "la mordidita"}}, {"type": "node", "id": 2367580226, "lat": -34.9063633, "lon": -54.9535191, "tags": {"name": "Salaberry", "shop": "car_repair"}}, {"type": "node", "id": 2367580227, "lat": -34.9065005, "lon": -54.9539574, "tags": {"name": "Repuestos Sosa", "shop": "car_parts"}}, {"type": "node", "id": 2367580230, "lat": -34.9045127, "lon": -54.953626, "tags": {"amenity": "car_wash", "name": "Lavadero El Rey"}}, {"type": "node", "id": 2367580231, "lat": -34.9047027, "lon": -54.9586634, "tags": {"amenity": "car_wash", "name": "Star Wash"}}, {"type": "node", "id": 2367580232, "lat": -34.904922, "lon": -54.9533261, "tags": {"name": "5 Esquinas", "shop": "bakery"}}, {"type": "node", "id": 2367942434, "lat": -34.897013, "lon": -54.9603415}, {"type": "node", "id": 2367950810, "lat": -34.904997, "lon": -54.9565465, "tags": {"name": "Repuestos de Motos Gimenez", "parts": "yes", "shop": "motorcycle"}}, {"type": "node", "id": 2368708838, "lat": -34.9047903, "lon": -54.9533764, "tags": {"highway": "traffic_signals"}}, {"type": "node", "id": 2368708842, "lat": -34.9048261, "lon": -54.9535033}, {"type": "node", "id": 2373743704, "lat": -34.9072025, "lon": -54.9540535, "tags": {"name": "Torniellaria EL Plata", "shop": "car_repair"}}, {"type": "node", "id": 2374411171, "lat": -34.9045653, "lon": -54.9554752, "tags": {"bus": "yes", "highway": "bus_stop", "public_transport": "platform"}}, {"type": "node", "id": 2374411172, "lat": -34.9071206, "lon": -54.9555646, "tags": {"bus": "yes", "highway": "bus_stop", "public_transport": "platform"}}, {"type": "node", "id": 2375490266, "lat": -34.9019785, "lon": -54.954521, "tags": {"name": "24 horas", "shop": "supermarket"}}, {"type": "node", "id": 2375490267, "lat": -34.9020212, "lon": -54.9587078, "tags": {"amenity": "school", "name": "Colegio Maldonado", "operator:type": "private"}}, {"type": "node", "id": 2375592988, "lat": -34.8986483, "lon": -54.9535256, "tags": {"highway": "crossing"}}, {"type": "node", "id": 2375592989, "lat": -34.9045727, "lon": -54.9535344, "tags": {"highway": "traffic_signals"}}, {"type": "node", "id": 2375592990, "lat": -34.9046536, "lon": -54.9534111, "tags": {"highway": "traffic_signals"}}, {"type": "node", "id": 2375593019, "lat": -34.9019245, "lon": -54.9568, "tags": {"highway": "crossing"}}, {"type": "node", "id": 2375593024, "lat": -34.9069835, "lon": -54.9598138, "tags": {"bus": "yes", "highway": "bus_stop", "public_transport": "platform"}}, {"type": "node", "id": 2375605876, "lat": -34.9036596, "lon": -54.955574, "tags": {"highway": "crossing"}}, {"type": "node", "id": 2376255053, "lat": -34.902727, "lon": -54.9576897, "tags": {"name": "Maldonado", "shop": "furniture"}}, {"type": "node", "id": 2376278120, "lat": -34.9046916, "lon": -54.9558707, "tags": {"amenity": "restaurant", "cuisine": "pizza", "description": "Pizza estilo italiana, excelente calidad", "name": "Porka Vaca", "phone": "+598 42 24 80 47"}}, {"type": "node", "id": 2376637956, "lat": -34.9066198, "lon": -54.9565242, "tags": {"addr:city": "Maldonado", "addr:housenumber": "944", "addr:postcode": "20000", "addr:street": "Rom\u00e1n Guerra", "contact:facebook": "https://www.facebook.com/Zapater%C3%ADa-El-Sol-198374587571727/", "name": "Zapater\u00eda El Sol", "phone": "+598-4222-2683", "ref:AGESIC": "0101000020D17F00001F85EBD1DDF424419A9999D99A675741/944", "shop": "shoes", "website": "https://zapateriaelsol.negocio.site/"}}, {"type": "node", "id": 2377503722, "lat": -34.9014542, "lon": -54.9591098, "tags": {"name": "Bazar Uruguay", "shop": "variety_store"}}, {"type": "node", "id": 2377503723, "lat": -34.90533, "lon": -54.9578242, "tags": {"name": "Electroeste", "shop": "electronics", "source": "Reconocimiento cartogr\u00e1fico 2016 por KG."}}, {"type": "node", "id": 2377503724, "lat": -34.9069829, "lon": -54.957573, "tags": {"name": "Toto", "shop": "shoes"}}, {"type": "node", "id": 2377503725, "lat": -34.9069161, "lon": -54.9578433, "tags": {"name": "Once", "shop": "shoes"}}, {"type": "node", "id": 2377503726, "lat": -34.9068013, "lon": -54.9578498, "tags": {"name": "Stadium", "shop": "shoes"}}, {"type": "node", "id": 2377503727, "lat": -34.9059146, "lon": -54.9578531, "tags": {"name": "Toto", "shop": "shoes"}}, {"type": "node", "id": 2377503728, "lat": -34.9075718, "lon": -54.9564791, "tags": {"amenity": "ice_cream", "name": "Helader\u00eda Las Palmas"}}, {"type": "node", "id": 2377571720, "lat": -34.9047767, "lon": -54.9531903, "tags": {"amenity": "bureau_de_change", "name": "Abitab 5 Esquinas", "opening_hours": "Mo-Fr 08:00-21:00; Sa 08:00-19:00", "phone": "+598 4224 5737", "website": "https://www.abitab.com.uy/"}}, {"type": "node", "id": 2377911282, "lat": -34.9072133, "lon": -54.9564583, "tags": {"name": "El Palacio de la M\u00fasica", "opening_hours": "Mo-Fr 09:00-12:00,14:00-19:00; Sa 09:00-13:00", "phone": "+598 4222 0309", "shop": "music"}}, {"type": "node", "id": 2377919071, "lat": -34.9078437, "lon": -54.9527723, "tags": {"amenity": "car_wash", "name": "Lavadero ANCAP Av. Aigua"}}, {"type": "node", "id": 2377919075, "lat": -34.907809, "lon": -54.9535993, "tags": {"brand": "Chevrolet", "name": "Taller Fontes", "shop": "car_repair"}}, {"type": "node", "id": 2378002308, "lat": -34.9021939, "lon": -54.9537437, "tags": {"name": "Barraca Palmares", "shop": "trade", "trade": "building_supplies"}}, {"type": "node", "id": 2378002311, "lat": -34.9016723, "lon": -54.9593762, "tags": {"name": "Barraca Juan Canales", "shop": "trade", "trade": "building_supplies"}}, {"type": "node", "id": 2378166054, "lat": -34.8990691, "lon": -54.9536917, "tags": {"bus": "yes", "highway": "bus_stop", "public_transport": "platform"}}, {"type": "node", "id": 2378166055, "lat": -34.900985, "lon": -54.9533934, "tags": {"name": "Juanita", "shop": "kiosk"}}, {"type": "node", "id": 2378166056, "lat": -34.9017874, "lon": -54.953329, "tags": {"name": "La Casa de la Madera", "shop": "trade", "trade": "timber_yard"}}, {"type": "node", "id": 2378166057, "lat": -34.9028991, "lon": -54.9536591, "tags": {"amenity": "public_building", "building": "yes", "name": "Corte Electoral", "office": "estate_agent"}}, {"type": "node", "id": 2378187280, "lat": -34.9073977, "lon": -54.9575962, "tags": {"amenity": "fast_food", "cuisine": "burger", "name": "El Grillo"}}, {"type": "node", "id": 2378187281, "lat": -34.9078173, "lon": -54.9577531, "tags": {"name": "GRD", "shop": "clothes"}}, {"type": "node", "id": 2378187282, "lat": -34.9074432, "lon": -54.9578612, "tags": {"name": "Dilusso Motos", "shop": "motorcycle"}}, {"type": "node", "id": 2378187284, "lat": -34.9026252, "lon": -54.953916, "tags": {"amenity": "car_wash", "name": "Lubricar", "shop": "car_repair"}}, {"type": "node", "id": 2378187285, "lat": -34.9031357, "lon": -54.9537003, "tags": {"name": "Pronto Repuestos", "shop": "car_repair"}}, {"type": "node", "id": 2378206455, "lat": -34.9055943, "lon": -54.9522523, "tags": {"amenity": "bar", "name": "Sede Club Barrio Rivera 33"}}, {"type": "node", "id": 2379470536, "lat": -34.9055619, "lon": -54.9546249, "tags": {"bus": "yes", "highway": "bus_stop", "public_transport": "platform"}}, {"type": "node", "id": 2379470537, "lat": -34.9056037, "lon": -54.9578707, "tags": {"bench": "yes", "bus": "yes", "highway": "bus_stop", "public_transport": "platform", "shelter": "yes"}}, {"type": "node", "id": 2379470538, "lat": -34.8996123, "lon": -54.9537582, "tags": {"name": "AEBU", "office": "union"}}, {"type": "node", "id": 2379470541, "lat": -34.9019947, "lon": -54.9542888, "tags": {"name": "Ferreter\u00eda Lavalleja", "shop": "hardware"}}, {"type": "node", "id": 2379633676, "lat": -34.9070502, "lon": -54.9535216, "tags": {"amenity": "bar", "name": "Club Pe\u00f1asco Seniors"}}, {"type": "node", "id": 2380220406, "lat": -34.907899, "lon": -54.9577446, "tags": {"name": "Los 4 Ases", "shop": "clothes"}}, {"type": "node", "id": 2380229555, "lat": -34.9060989, "lon": -54.9587287, "tags": {"addr:city": "Maldonado", "addr:street": "18 de Julio", "name": "Cerrajer\u00eda Aval", "shop": "locksmith", "source": "Reconocimiento cartogr\u00e1fico 2016 por KG."}}, {"type": "node", "id": 2380664384, "lat": -34.9076073, "lon": -54.9578118, "tags": {"name": "Vicenza Joyeros", "shop": "jewelry"}}, {"type": "node", "id": 2380664385, "lat": -34.9077988, "lon": -54.9575853, "tags": {"name": "Universal", "shop": "jewelry"}}, {"type": "node", "id": 2380664386, "lat": -34.9059701, "lon": -54.9576136, "tags": {"name": "Los Muchachos", "shop": "clothes"}}, {"type": "node", "id": 2380664387, "lat": -34.9076802, "lon": -54.957797, "tags": {"name": "Florida", "shop": "optician"}}, {"type": "node", "id": 2380682763, "lat": -34.9055982, "lon": -54.9567538, "tags": {"name": "Deseo\u00b4s", "shop": "bed"}}, {"type": "node", "id": 2380707841, "lat": -34.9031845, "lon": -54.9554553, "tags": {"amenity": "school", "name": "Colegio Fernandino", "operator:type": "private"}}, {"type": "node", "id": 2380707842, "lat": -34.9028926, "lon": -54.9550493, "tags": {"amenity": "kindergarten", "name": "Rayito de Sol", "operator:type": "private"}}, {"type": "node", "id": 2380707843, "lat": -34.9007971, "lon": -54.9543659, "tags": {"name": "Mercer\u00eda Cinta Azul", "shop": "haberdashery"}}, {"type": "node", "id": 2380707844, "lat": -34.9008875, "lon": -54.9568512, "tags": {"name": "Pescader\u00eda Escamas", "shop": "seafood"}}, {"type": "node", "id": 2380707845, "lat": -34.9019953, "lon": -54.9555066, "tags": {"name": "Kiosco Tio Rico", "shop": "kiosk"}}, {"type": "node", "id": 2380707846, "lat": -34.9033602, "lon": -54.9589349, "tags": {"name": "Cotill\u00f3n Mabipark", "shop": "doityourself"}}, {"type": "node", "id": 2380707847, "lat": -34.9074091, "lon": -54.956455, "tags": {"name": "Jugueter\u00eda Stikers", "shop": "toys"}}, {"type": "node", "id": 2381519832, "lat": -34.9078437, "lon": -54.9607042, "tags": {"name": "Barraca Uno", "shop": "trade", "trade": "building_supplies"}}, {"type": "node", "id": 2381615594, "lat": -34.9067186, "lon": -54.957584, "tags": {"addr:city": "Maldonado", "addr:country": "UY", "addr:street": "Sarand\u00ed", "amenity": "ice_cream", "name": "Popi"}}, {"type": "node", "id": 2381891313, "lat": -34.9068259, "lon": -54.9554203, "tags": {"name": "Vivero Rincon", "shop": "garden_centre"}}, {"type": "node", "id": 2381891315, "lat": -34.9042472, "lon": -54.9576374, "tags": {"name": "Del Longo", "shop": "funeral_directors"}}, {"type": "node", "id": 2381891316, "lat": -34.9063324, "lon": -54.9559139, "tags": {"name": "Aguirre", "shop": "funeral_directors"}}, {"type": "node", "id": 2383727727, "lat": -34.9036302, "lon": -54.957864, "tags": {"addr:postcode": "20000", "amenity": "restaurant", "name": "El nuevo Oasis"}}, {"type": "node", "id": 2383743844, "lat": -34.9064876, "lon": -54.9572976, "tags": {"name": "Servitec Maldonado", "shop": "computer"}}, {"type": "node", "id": 2383808411, "lat": -34.899447, "lon": -54.9536953, "tags": {"name": "Casa Ale", "shop": "plastic"}}, {"type": "node", "id": 2383808431, "lat": -34.9038009, "lon": -54.9608622, "tags": {"amenity": "restaurant", "name": "La Balancita"}}, {"type": "node", "id": 2383808434, "lat": -34.9032504, "lon": -54.9570436, "tags": {"amenity": "restaurant", "cuisine": "steak_house", "name": "Classic Restaurant y Parrillada", "phone": "+598 42 25 49 91; +598 42 25 87 33"}}, {"type": "node", "id": 2383813694, "lat": -34.904705, "lon": -54.956775, "tags": {"name": "Papeler\u00eda Tricollage", "shop": "stationery"}}, {"type": "node", "id": 2384920123, "lat": -34.8985282, "lon": -54.959906}, {"type": "node", "id": 2384920124, "lat": -34.898294, "lon": -54.9583653}, {"type": "node", "id": 2384920125, "lat": -34.8992651, "lon": -54.9597113}, {"type": "node", "id": 2384920129, "lat": -34.8997693, "lon": -54.959579}, {"type": "node", "id": 2384920132, "lat": -34.8979837, "lon": -54.9600488}, {"type": "node", "id": 2384920136, "lat": -34.9075864, "lon": -54.9575865, "tags": {"name": "Pa\u00f1aler\u00eda Luna", "shop": "beauty"}}, {"type": "node", "id": 2384921992, "lat": -34.9072083, "lon": -54.9616508, "tags": {"description": "articulos de Goma y Mangueras", "name": "Polygom", "shop": "yes"}}, {"type": "node", "id": 2386878035, "lat": -34.9063457, "lon": -54.9575741, "tags": {"name": "Book Shop", "shop": "books"}}, {"type": "node", "id": 2386878036, "lat": -34.9063354, "lon": -54.9578682, "tags": {"name": "Macri Sport", "shop": "shoes"}}, {"type": "node", "id": 2386878037, "lat": -34.9061443, "lon": -54.9587213, "tags": {"addr:city": "Maldonado", "addr:street": "18 de Julio", "name": "Optica Focal", "shop": "optician", "source": "Reconocimiento cartogr\u00e1fico 2016 por KG."}}, {"type": "node", "id": 2386878042, "lat": -34.9065543, "lon": -54.9578598, "tags": {"name": "Jean Vernier", "shop": "clothes"}}, {"type": "node", "id": 2386878043, "lat": -34.9052529, "lon": -54.958908, "tags": {"name": "Mailus", "shop": "hairdresser"}}, {"type": "node", "id": 2386878044, "lat": -34.9060092, "lon": -54.958723, "tags": {"addr:city": "Maldonado", "addr:street": "18 de Julio", "name": "Marcelo y Lilian", "shop": "hairdresser", "source": "Reconocimiento cartogr\u00e1fico 2016 por KG."}}, {"type": "node", "id": 2386878045, "lat": -34.9064928, "lon": -54.9588602, "tags": {"shop": "electrical"}}, {"type": "node", "id": 2386878048, "lat": -34.9073725, "lon": -54.9584174, "tags": {"name": "Motociclo", "shop": "motorcycle"}}, {"type": "node", "id": 2386878049, "lat": -34.9072396, "lon": -54.9583922, "tags": {"amenity": "pub", "name": "El Pool Ingles"}}, {"type": "node", "id": 2386878050, "lat": -34.9073695, "lon": -54.9573527, "tags": {"name": "Charrua\u00b4s", "shop": "craft"}}, {"type": "node", "id": 2386878051, "lat": -34.9072455, "lon": -54.9568534, "tags": {"name": "Santa Catalina Creaciones", "shop": "clothes"}}, {"type": "node", "id": 2386878052, "lat": -34.9071038, "lon": -54.9565053, "tags": {"name": "Comida Vegetariana", "shop": "food"}}, {"type": "node", "id": 2386878053, "lat": -34.907238, "lon": -54.9562041, "tags": {"name": "Las Criollitas Rotiser\u00eda", "shop": "food"}}, {"type": "node", "id": 2386878054, "lat": -34.9072092, "lon": -54.9554312, "tags": {"name": "Kiosko Lanza Rote", "shop": "kiosk"}}, {"type": "node", "id": 2386878055, "lat": -34.9073011, "lon": -54.9547284, "tags": {"name": "Peinados Yoray", "shop": "hairdresser"}}, {"type": "node", "id": 2386878056, "lat": -34.9072609, "lon": -54.9548288, "tags": {"name": "Kiosko Ituzaing\u00f3", "shop": "kiosk"}}, {"type": "node", "id": 2386890185, "lat": -34.906558, "lon": -54.9588842, "tags": {"name": "Estilo Muebles", "shop": "furniture", "source": "Reconocimiento cartogr\u00e1fico 2016 por KG."}}, {"type": "node", "id": 2386890186, "lat": -34.9073666, "lon": -54.9572462, "tags": {"name": "Herand 17", "shop": "clothes"}}, {"type": "node", "id": 2387990589, "lat": -34.8993886, "lon": -54.953408, "tags": {"name": "Ferreter\u00eda CyC", "shop": "hardware"}}, {"type": "node", "id": 2387990590, "lat": -34.8992642, "lon": -54.9533997, "tags": {"name": "Burbujas", "shop": "laundry"}}, {"type": "node", "id": 2387990591, "lat": -34.9009401, "lon": -54.9536837, "tags": {"name": "M\u00e1quinas comerciales Rodolfo Garcia", "shop": "yes"}}, {"type": "node", "id": 2387990592, "lat": -34.9025784, "lon": -54.9533457, "tags": {"name": "La Casa del Rulemans", "shop": "car_parts"}}, {"type": "node", "id": 2387990595, "lat": -34.9053622, "lon": -54.9533177, "tags": {"name": "El Eslab\u00f3n", "shop": "supermarket"}}, {"type": "node", "id": 2387990596, "lat": -34.9059963, "lon": -54.9533354, "tags": {"name": "La Boya", "shop": "outdoor"}}, {"type": "node", "id": 2387990607, "lat": -34.9078567, "lon": -54.9566344, "tags": {"name": "Lola Boutique", "shop": "clothes"}}, {"type": "node", "id": 2387990608, "lat": -34.9077039, "lon": -54.9566469, "tags": {"name": "Canel Interiores", "shop": "furniture"}}, {"type": "node", "id": 2387990609, "lat": -34.9071517, "lon": -54.9565072, "tags": {"name": "Kiosko Mega", "shop": "kiosk"}}, {"type": "node", "id": 2387990610, "lat": -34.9070332, "lon": -54.9566858, "tags": {"name": "Cerrajer\u00eda Abanti", "shop": "locksmith"}}, {"type": "node", "id": 2387990611, "lat": -34.906488, "lon": -54.9565111, "tags": {"name": "Tienda Isabella", "shop": "clothes"}}, {"type": "node", "id": 2387990612, "lat": -34.9064716, "lon": -54.9569904, "tags": {"name": "Javier coiffeur", "shop": "hairdresser"}}, {"type": "node", "id": 2387990623, "lat": -34.9058958, "lon": -54.9565239, "tags": {"name": "Papeler\u00eda Pian", "shop": "stationery"}}, {"type": "node", "id": 2387990626, "lat": -34.9063448, "lon": -54.9546958, "tags": {"amenity": "school", "name": "Liceo Padre Domingo", "operator:type": "private_non_profit", "religion": "christian"}}, {"type": "node", "id": 2390659705, "lat": -34.9066216, "lon": -54.957852, "tags": {"name": "Crazy Outlet", "shop": "clothes"}}, {"type": "node", "id": 2390659706, "lat": -34.9064632, "lon": -54.9577641, "tags": {"name": "Tienda Arredo", "shop": "curtain"}}, {"type": "node", "id": 2390659707, "lat": -34.9058429, "lon": -54.9578461, "tags": {"description": "bolsas y cotill\u00f3n", "name": "La Casa Naranja", "shop": "bag"}}, {"type": "node", "id": 2390659708, "lat": -34.9068997, "lon": -54.9575923, "tags": {"name": "Medier\u00eda Si Si", "shop": "clothes"}}, {"type": "node", "id": 2390659709, "lat": -34.9061557, "lon": -54.9575888, "tags": {"name": "Maldonado", "shop": "optician"}}, {"type": "node", "id": 2390659710, "lat": -34.9062258, "lon": -54.9575938, "tags": {"description": "Ropa infantil", "name": "Gepeto", "shop": "clothes"}}, {"type": "node", "id": 2390659711, "lat": -34.906083, "lon": -54.9576055, "tags": {"addr:housenumber": "local 01", "addr:postcode": "20000", "addr:street": "Sarand\u00ed", "name": "Odifre", "name:en": "audiffred", "name:es": "Audiffred", "opening_hours": "Mo-Sa 09:00-21:00", "phone": "42254924", "shop": "toys"}}, {"type": "node", "id": 2390659712, "lat": -34.9070775, "lon": -54.957576, "tags": {"name": "Joyer\u00eda Colonial", "shop": "jewelry"}}, {"type": "node", "id": 2390659713, "lat": -34.9072547, "lon": -54.9573799, "tags": {"name": "Guzzi Joya", "shop": "jewelry"}}, {"type": "node", "id": 2390659715, "lat": -34.906474, "lon": -54.9571713, "tags": {"name": "Tuyo y Mio", "shop": "clothes"}}, {"type": "node", "id": 2391774353, "lat": -34.905762, "lon": -54.9578456, "tags": {"name": "Tentaciones", "shop": "gift", "source": "Reconocimiento cartogr\u00e1fico 2016 por KG."}}, {"type": "node", "id": 2393069439, "lat": -34.9054573, "lon": -54.9565272, "tags": {"name": "Yuyer\u00eda Leo", "shop": "herbalist"}}, {"type": "node", "id": 2393264927, "lat": -34.9072128, "lon": -54.9527345, "tags": {"amenity": "place_of_worship", "building": "yes", "denomination": "protestant", "name": "Iglesia Adventista", "religion": "christian"}}, {"type": "node", "id": 2393275668, "lat": -34.9037767, "lon": -54.9600628, "tags": {"amenity": "studio", "name": "Fm Gente", "studio": "audio"}}, {"type": "node", "id": 2393826679, "lat": -34.9077338, "lon": -54.9598656}, {"type": "node", "id": 2395660055, "lat": -34.9082356, "lon": -54.9522662, "tags": {"highway": "stop"}}, {"type": "node", "id": 2395660057, "lat": -34.905614, "lon": -54.9525417, "tags": {"bus": "yes", "highway": "bus_stop", "public_transport": "platform"}}, {"type": "node", "id": 2396643551, "lat": -34.907259, "lon": -54.9577607, "tags": {"addr:city": "Maldonado", "addr:street": "Sarand\u00ed", "name": "Urban", "shop": "clothes", "source": "Reconocimiento cartogr\u00e1fico 2016 por KG."}}, {"type": "node", "id": 2396643552, "lat": -34.9071637, "lon": -54.9577564, "tags": {"addr:city": "Maldonado", "addr:street": "Sarand\u00ed", "name": "Libros Libros", "shop": "books", "source": "Reconocimiento cartogr\u00e1fico 2016 por KG."}}, {"type": "node", "id": 2396643553, "lat": -34.9071143, "lon": -54.957759, "tags": {"addr:city": "Maldonado", "addr:street": "Sarand\u00ed", "name": "Homeopat\u00eda Natura Trix", "shop": "herbalist", "source": "Reconocimiento cartogr\u00e1fico 2016 por KG."}}, {"type": "node", "id": 2396678975, "lat": -34.8990228, "lon": -54.9582185, "tags": {"name": "Autoservicio Barrio Norte", "shop": "convenience"}}, {"type": "node", "id": 2398277710, "lat": -34.9000732, "lon": -54.9568125}, {"type": "node", "id": 2398277711, "lat": -34.9002505, "lon": -54.9568098}, {"type": "node", "id": 2398277712, "lat": -34.9002607, "lon": -54.9573375}, {"type": "node", "id": 2398373227, "lat": -34.9068089, "lon": -54.9575934, "tags": {"name": "Crazy", "shop": "clothes"}}, {"type": "node", "id": 2398373228, "lat": -34.906479, "lon": -54.9568798, "tags": {"name": "El Raperito", "shop": "clothes"}}, {"type": "node", "id": 2398373231, "lat": -34.9064756, "lon": -54.9574617, "tags": {"name": "Sean", "shop": "clothes"}}, {"type": "node", "id": 2400884037, "lat": -34.9046414, "lon": -54.9555124, "tags": {"highway": "stop"}}, {"type": "node", "id": 2400915995, "lat": -34.9047031, "lon": -54.9598874, "tags": {"bus": "yes", "highway": "bus_stop", "public_transport": "platform"}}, {"type": "node", "id": 2400915996, "lat": -34.9019618, "lon": -54.9568443, "tags": {"bus": "yes", "highway": "bus_stop", "public_transport": "platform"}}, {"type": "node", "id": 2400965100, "lat": -34.9007032, "lon": -54.9536414, "tags": {"bus": "yes", "highway": "bus_stop", "public_transport": "platform"}}, {"type": "node", "id": 2400965106, "lat": -34.9009412, "lon": -54.953446, "tags": {"bus": "yes", "highway": "bus_stop", "public_transport": "platform"}}, {"type": "node", "id": 2400965118, "lat": -34.9019779, "lon": -54.9600682, "tags": {"highway": "stop"}}, {"type": "node", "id": 2400965119, "lat": -34.9020113, "lon": -54.9600143, "tags": {"bus": "yes", "highway": "bus_stop", "public_transport": "platform"}}, {"type": "node", "id": 2400965128, "lat": -34.9036281, "lon": -54.9535957, "tags": {"bus": "yes", "highway": "bus_stop", "public_transport": "platform"}}, {"type": "node", "id": 2400965137, "lat": -34.9045951, "lon": -54.9599093, "tags": {"highway": "stop"}}, {"type": "node", "id": 2433131938, "lat": -34.9018524, "lon": -54.953576}, {"type": "node", "id": 2435895491, "lat": -34.9067108, "lon": -54.9566407, "tags": {"description": "Indumentaria de Trabajo", "name": "Fama", "shop": "clothes"}}, {"type": "node", "id": 2460289972, "lat": -34.9018285, "lon": -54.9537719, "tags": {"name": "Don Julio", "shop": "butcher"}}, {"type": "node", "id": 2475147417, "lat": -34.9045734, "lon": -54.963138, "tags": {"highway": "traffic_signals"}}, {"type": "node", "id": 2477063524, "lat": -34.9073723, "lon": -54.9592056, "tags": {"name": "K\u00b4pelos", "shop": "hairdresser"}}, {"type": "node", "id": 2477063526, "lat": -34.9045777, "lon": -54.9539421, "tags": {"name": "Serigarf\u00eda Cabana", "office": "graphic_design"}}, {"type": "node", "id": 2493009566, "lat": -34.9079098, "lon": -54.9568781}, {"type": "node", "id": 2493009567, "lat": -34.9082411, "lon": -54.9568704}, {"type": "node", "id": 2493009568, "lat": -34.9082374, "lon": -54.9566356}, {"type": "node", "id": 2493009569, "lat": -34.9079061, "lon": -54.9566433}, {"type": "node", "id": 2495011783, "lat": -34.907469, "lon": -54.9590929}, {"type": "node", "id": 2495011784, "lat": -34.9074754, "lon": -54.9594017}, {"type": "node", "id": 2495011789, "lat": -34.9078631, "lon": -54.9590808}, {"type": "node", "id": 2495011790, "lat": -34.9078695, "lon": -54.9593896}, {"type": "node", "id": 2495023858, "lat": -34.8988091, "lon": -54.9531347}, {"type": "node", "id": 2495023859, "lat": -34.8988121, "lon": -54.9534189}, {"type": "node", "id": 2495023860, "lat": -34.8990962, "lon": -54.9531302}, {"type": "node", "id": 2495023861, "lat": -34.8990993, "lon": -54.9534143}, {"type": "node", "id": 2495023862, "lat": -34.900302, "lon": -54.9525334}, {"type": "node", "id": 2495023863, "lat": -34.9003072, "lon": -54.9528615}, {"type": "node", "id": 2495023864, "lat": -34.900505, "lon": -54.9525287}, {"type": "node", "id": 2495023865, "lat": -34.9005101, "lon": -54.9528568}, {"type": "node", "id": 2510220481, "lat": -34.9064994, "lon": -54.9621119, "tags": {"name": "El Emporio del Sabor", "shop": "bakery"}}, {"type": "node", "id": 2518522942, "lat": -34.9063623, "lon": -54.9539195, "tags": {"name": "Parabrisas Rosano", "shop": "car_parts"}}, {"type": "node", "id": 2521004489, "lat": -34.9037541, "lon": -54.9560254}, {"type": "node", "id": 2521004490, "lat": -34.903783, "lon": -54.9556366}, {"type": "node", "id": 2521004491, "lat": -34.9037567, "lon": -54.9566104}, {"type": "node", "id": 2521004492, "lat": -34.9039537, "lon": -54.956024}, {"type": "node", "id": 2521004493, "lat": -34.9039563, "lon": -54.956609}, {"type": "node", "id": 2521004494, "lat": -34.9042376, "lon": -54.955629}, {"type": "node", "id": 2521004495, "lat": -34.9042391, "lon": -54.9560222}, {"type": "node", "id": 2521006059, "lat": -34.9049918, "lon": -54.9567047}, {"type": "node", "id": 2521006060, "lat": -34.9049946, "lon": -54.9572218}, {"type": "node", "id": 2521006061, "lat": -34.9051692, "lon": -54.9572204}, {"type": "node", "id": 2521006062, "lat": -34.9051716, "lon": -54.9576813}, {"type": "node", "id": 2521006063, "lat": -34.9055019, "lon": -54.9567006}, {"type": "node", "id": 2521006064, "lat": -34.905507, "lon": -54.9576514}, {"type": "node", "id": 2521006065, "lat": -34.9062305, "lon": -54.9563455}, {"type": "node", "id": 2521006066, "lat": -34.9062336, "lon": -54.9565392}, {"type": "node", "id": 2521006067, "lat": -34.9062801, "lon": -54.9566552}, {"type": "node", "id": 2521006068, "lat": -34.9062822, "lon": -54.956832}, {"type": "node", "id": 2521006069, "lat": -34.9063928, "lon": -54.9566533}, {"type": "node", "id": 2521006070, "lat": -34.9063949, "lon": -54.95683}, {"type": "node", "id": 2521006071, "lat": -34.9063759, "lon": -54.9563422}, {"type": "node", "id": 2521006072, "lat": -34.9063789, "lon": -54.9565358}, {"type": "node", "id": 2521012414, "lat": -34.907744, "lon": -54.9516901}, {"type": "node", "id": 2521012415, "lat": -34.907748, "lon": -54.9518546}, {"type": "node", "id": 2521012416, "lat": -34.9079631, "lon": -54.9515255}, {"type": "node", "id": 2521012417, "lat": -34.907967, "lon": -54.951682}, {"type": "node", "id": 2521012418, "lat": -34.9081167, "lon": -54.9515199}, {"type": "node", "id": 2521012419, "lat": -34.9081246, "lon": -54.9518408}, {"type": "node", "id": 2544668107, "lat": -34.9071223, "lon": -54.9568036}, {"type": "node", "id": 2544668108, "lat": -34.9072845, "lon": -54.9568034}, {"type": "node", "id": 2544668109, "lat": -34.9072844, "lon": -54.9566536}, {"type": "node", "id": 2544668110, "lat": -34.9071221, "lon": -54.9566538}, {"type": "node", "id": 2555388231, "lat": -34.9063887, "lon": -54.9550868}, {"type": "node", "id": 2555388232, "lat": -34.9063915, "lon": -54.9552627}, {"type": "node", "id": 2555388233, "lat": -34.9062369, "lon": -54.9552664}, {"type": "node", "id": 2555388234, "lat": -34.9062341, "lon": -54.9550904}, {"type": "node", "id": 2555395591, "lat": -34.9064973, "lon": -54.953692}, {"type": "node", "id": 2555395593, "lat": -34.9068382, "lon": -54.953676}, {"type": "node", "id": 2555395595, "lat": -34.9068312, "lon": -54.9534538}, {"type": "node", "id": 2555395596, "lat": -34.9064903, "lon": -54.9534699}, {"type": "node", "id": 2555395598, "lat": -34.9073598, "lon": -54.9557385}, {"type": "node", "id": 2555395600, "lat": -34.9074304, "lon": -54.9556276}, {"type": "node", "id": 2555395602, "lat": -34.9075466, "lon": -54.95558}, {"type": "node", "id": 2555395604, "lat": -34.9075481, "lon": -54.9557359}, {"type": "node", "id": 2555395606, "lat": -34.9073704, "lon": -54.9554567}, {"type": "node", "id": 2555395608, "lat": -34.9075671, "lon": -54.9554516}, {"type": "node", "id": 2555395609, "lat": -34.9075638, "lon": -54.9552636}, {"type": "node", "id": 2555395611, "lat": -34.9073671, "lon": -54.9552687}, {"type": "node", "id": 2556570910, "lat": -34.9050406, "lon": -54.9531487}, {"type": "node", "id": 2556570911, "lat": -34.9051106, "lon": -54.9532428}, {"type": "node", "id": 2556570912, "lat": -34.905115, "lon": -54.9533952}, {"type": "node", "id": 2556570913, "lat": -34.9051682, "lon": -54.9529942}, {"type": "node", "id": 2556570914, "lat": -34.9052285, "lon": -54.9531606}, {"type": "node", "id": 2556570915, "lat": -34.9052365, "lon": -54.9533962}, {"type": "node", "id": 2556570916, "lat": -34.9052675, "lon": -54.9531185}, {"type": "node", "id": 2556570917, "lat": -34.9053553, "lon": -54.9556155}, {"type": "node", "id": 2556570918, "lat": -34.905357, "lon": -54.9556954}, {"type": "node", "id": 2556570919, "lat": -34.9054073, "lon": -54.9556945}, {"type": "node", "id": 2556570920, "lat": -34.9054084, "lon": -54.9558532}, {"type": "node", "id": 2556570921, "lat": -34.9054971, "lon": -54.9556133}, {"type": "node", "id": 2556570922, "lat": -34.9054988, "lon": -54.9558511}, {"type": "node", "id": 2556570927, "lat": -34.9066133, "lon": -54.9582127}, {"type": "node", "id": 2556570928, "lat": -34.9066133, "lon": -54.958442}, {"type": "node", "id": 2556570929, "lat": -34.906686, "lon": -54.9582127}, {"type": "node", "id": 2556570930, "lat": -34.9066877, "lon": -54.9577911}, {"type": "node", "id": 2556570931, "lat": -34.9067261, "lon": -54.9585796}, {"type": "node", "id": 2556570932, "lat": -34.9067277, "lon": -54.958752}, {"type": "node", "id": 2556570933, "lat": -34.9067666, "lon": -54.9577878}, {"type": "node", "id": 2556570934, "lat": -34.9067693, "lon": -54.9582126}, {"type": "node", "id": 2556570935, "lat": -34.9068038, "lon": -54.9584359}, {"type": "node", "id": 2556570936, "lat": -34.9068054, "lon": -54.9585778}, {"type": "node", "id": 2556570937, "lat": -34.9068632, "lon": -54.9582104}, {"type": "node", "id": 2556570938, "lat": -34.9068765, "lon": -54.9587476}, {"type": "node", "id": 2556570939, "lat": -34.9070003, "lon": -54.955745}, {"type": "node", "id": 2556570940, "lat": -34.9069974, "lon": -54.955592}, {"type": "node", "id": 2556570941, "lat": -34.9071223, "lon": -54.9534788}, {"type": "node", "id": 2556570942, "lat": -34.9071248, "lon": -54.9537754}, {"type": "node", "id": 2556570943, "lat": -34.9071479, "lon": -54.9557408}, {"type": "node", "id": 2556570944, "lat": -34.9071497, "lon": -54.955832}, {"type": "node", "id": 2556570945, "lat": -34.9072038, "lon": -54.9536409}, {"type": "node", "id": 2556570946, "lat": -34.9072075, "lon": -54.9537723}, {"type": "node", "id": 2556570947, "lat": -34.9072621, "lon": -54.9555846}, {"type": "node", "id": 2556570948, "lat": -34.9072667, "lon": -54.9558287}, {"type": "node", "id": 2556570949, "lat": -34.9072915, "lon": -54.9534712}, {"type": "node", "id": 2556570950, "lat": -34.9072915, "lon": -54.9536393}, {"type": "node", "id": 2556570951, "lat": -34.9079407, "lon": -54.9555836}, {"type": "node", "id": 2556570952, "lat": -34.9079432, "lon": -54.9556956}, {"type": "node", "id": 2556570953, "lat": -34.9081871, "lon": -54.9555757}, {"type": "node", "id": 2556570954, "lat": -34.9081896, "lon": -54.9556876}, {"type": "node", "id": 2588605285, "lat": -34.8998931, "lon": -54.957971, "tags": {"amenity": "waste_disposal"}}, {"type": "node", "id": 2588605287, "lat": -34.9003044, "lon": -54.9564436, "tags": {"amenity": "waste_disposal"}}, {"type": "node", "id": 2588605289, "lat": -34.9073841, "lon": -54.9521457, "tags": {"amenity": "waste_disposal"}}, {"type": "node", "id": 2626589142, "lat": -34.9087675, "lon": -54.9555129}, {"type": "node", "id": 2626589152, "lat": -34.9096544, "lon": -54.9533189}, {"type": "node", "id": 2642871246, "lat": -34.9079308, "lon": -54.9522179, "tags": {"amenity": "waste_disposal"}}, {"type": "node", "id": 2719988058, "lat": -34.9071457, "lon": -54.9585279, "tags": {"brand": "Asaki", "motorcycle:clothes": "no", "motorcycle:rental": "no", "motorcycle:repair": "no", "motorcycle:sales": "yes", "name": "Asaki", "shop": "motorcycle", "source": "Reconocimiento cartogr\u00e1fico 2016 por KG."}}, {"type": "node", "id": 2719988066, "lat": -34.9035523, "lon": -54.9587545, "tags": {"name": "Ferreter\u00eda 18", "shop": "hardware"}}, {"type": "node", "id": 2719988071, "lat": -34.9029101, "lon": -54.9587451, "tags": {"amenity": "school", "name": "Instituto Latinoamericano", "operator:type": "private", "website": "https://ila.edu.uy/"}}, {"type": "node", "id": 2719988074, "lat": -34.9038372, "lon": -54.9587272, "tags": {"name": "Mercer\u00eda Girasoles", "shop": "clothes"}}, {"type": "node", "id": 2719988317, "lat": -34.8996008, "lon": -54.9581171}, {"type": "node", "id": 2719988319, "lat": -34.8996178, "lon": -54.9582059}, {"type": "node", "id": 2719988321, "lat": -34.8996313, "lon": -54.9582839}, {"type": "node", "id": 2719988322, "lat": -34.8996484, "lon": -54.9583726}, {"type": "node", "id": 2719988324, "lat": -34.8996711, "lon": -54.9584391}, {"type": "node", "id": 2719988326, "lat": -34.8996894, "lon": -54.9585284}, {"type": "node", "id": 2719988328, "lat": -34.8997042, "lon": -54.9586041}, {"type": "node", "id": 2719988329, "lat": -34.8997226, "lon": -54.9586934}, {"type": "node", "id": 2719988331, "lat": -34.8997296, "lon": -54.9587508}, {"type": "node", "id": 2719988333, "lat": -34.8997387, "lon": -54.9580772}, {"type": "node", "id": 2719988334, "lat": -34.899748, "lon": -54.9588401}, {"type": "node", "id": 2719988336, "lat": -34.8997557, "lon": -54.958166}, {"type": "node", "id": 2719988338, "lat": -34.8997692, "lon": -54.9582426}, {"type": "node", "id": 2719988340, "lat": -34.8997863, "lon": -54.9583313}, {"type": "node", "id": 2719988341, "lat": -34.8998499, "lon": -54.9583844}, {"type": "node", "id": 2719988343, "lat": -34.8998683, "lon": -54.9584737}, {"type": "node", "id": 2719988345, "lat": -34.8998831, "lon": -54.9585494}, {"type": "node", "id": 2719988347, "lat": -34.8998988, "lon": -54.9584308}, {"type": "node", "id": 2719988348, "lat": -34.8999014, "lon": -54.9586387}, {"type": "node", "id": 2719988350, "lat": -34.899916, "lon": -54.9585195}, {"type": "node", "id": 2719988352, "lat": -34.8999085, "lon": -54.9586961}, {"type": "node", "id": 2719988354, "lat": -34.8999268, "lon": -54.9587854}, {"type": "node", "id": 2719988355, "lat": -34.8999303, "lon": -54.9586037}, {"type": "node", "id": 2719988357, "lat": -34.8999461, "lon": -54.9586826}, {"type": "node", "id": 2719988359, "lat": -34.9000222, "lon": -54.958734}, {"type": "node", "id": 2719988361, "lat": -34.9000241, "lon": -54.9585759}, {"type": "node", "id": 2719988362, "lat": -34.9000399, "lon": -54.9586547}, {"type": "node", "id": 2719988364, "lat": -34.9000394, "lon": -54.9588228}, {"type": "node", "id": 2719988365, "lat": -34.9000405, "lon": -54.9585667}, {"type": "node", "id": 2719988366, "lat": -34.9000395, "lon": -54.9583903}, {"type": "node", "id": 2719988367, "lat": -34.9000479, "lon": -54.9583881}, {"type": "node", "id": 2719988368, "lat": -34.9000567, "lon": -54.9586531}, {"type": "node", "id": 2719988369, "lat": -34.9000567, "lon": -54.9584791}, {"type": "node", "id": 2719988370, "lat": -34.9000644, "lon": -54.9584761}, {"type": "node", "id": 2719988372, "lat": -34.9001629, "lon": -54.9586935}, {"type": "node", "id": 2719988378, "lat": -34.9001801, "lon": -54.9587823}, {"type": "node", "id": 2719988380, "lat": -34.9001783, "lon": -54.9585281}, {"type": "node", "id": 2719988382, "lat": -34.9001887, "lon": -54.9583488}, {"type": "node", "id": 2719988384, "lat": -34.9001946, "lon": -54.9586144}, {"type": "node", "id": 2719988385, "lat": -34.9002052, "lon": -54.9584368}, {"type": "node", "id": 2729975316, "lat": -34.9006307, "lon": -54.9585979}, {"type": "node", "id": 2729975317, "lat": -34.9006325, "lon": -54.9587471}, {"type": "node", "id": 2729975318, "lat": -34.9006335, "lon": -54.9588309}, {"type": "node", "id": 2729975319, "lat": -34.9007447, "lon": -54.9587088}, {"type": "node", "id": 2729975320, "lat": -34.9007461, "lon": -54.9588289}, {"type": "node", "id": 2729975321, "lat": -34.9009097, "lon": -54.9585929}, {"type": "node", "id": 2729975322, "lat": -34.900911, "lon": -54.9587058}, {"type": "node", "id": 2732746859, "lat": -34.9079627, "lon": -54.9539273}, {"type": "node", "id": 2732746866, "lat": -34.9081577, "lon": -54.9539226}, {"type": "node", "id": 2738647983, "lat": -34.9020175, "lon": -54.9551306}, {"type": "node", "id": 2738647984, "lat": -34.9020224, "lon": -54.9553611}, {"type": "node", "id": 2738647995, "lat": -34.9021779, "lon": -54.9550474}, {"type": "node", "id": 2738647996, "lat": -34.9021796, "lon": -54.9551255}, {"type": "node", "id": 2738647997, "lat": -34.9021954, "lon": -54.9553556}, {"type": "node", "id": 2738647998, "lat": -34.9021983, "lon": -54.9554891}, {"type": "node", "id": 2738647999, "lat": -34.9023432, "lon": -54.9550421}, {"type": "node", "id": 2738648000, "lat": -34.9023527, "lon": -54.9554842}, {"type": "node", "id": 2830384494, "lat": -34.9018481, "lon": -54.9610851, "tags": {"name": "Vidrier\u00eda BM", "shop": "glaziery"}}, {"type": "node", "id": 2830384495, "lat": -34.9019937, "lon": -54.9599194, "tags": {"amenity": "waste_disposal"}}, {"type": "node", "id": 2830384496, "lat": -34.9020065, "lon": -54.962284, "tags": {"amenity": "waste_disposal"}}, {"type": "node", "id": 3566381775, "lat": -34.9047133, "lon": -54.9531185, "tags": {"addr:city": "Maldonado", "addr:housenumber": "545", "addr:postcode": "20000", "addr:street": "Doctor Rom\u00e1n Bergalli", "name": "Tito Distribuciones", "opening_hours": "Mo-Fr 08:00-18:00; Sa 08:00-15:00", "phone": "00598 42 24 66 28", "shop": "convenience", "website": "https://www.titodistribuciones.com.uy/"}}, {"type": "node", "id": 4087954035, "lat": -34.9078645, "lon": -54.9618608}, {"type": "node", "id": 4087954036, "lat": -34.9083423, "lon": -54.9618457}, {"type": "node", "id": 4087954037, "lat": -34.9083384, "lon": -54.9616892}, {"type": "node", "id": 4087954038, "lat": -34.9078406, "lon": -54.9615274}, {"type": "node", "id": 4115069890, "lat": -34.9000795, "lon": -54.9569302, "tags": {"bus": "yes", "highway": "bus_stop", "name": "parada de autobuses", "public_transport": "platform"}}, {"type": "node", "id": 4316551689, "lat": -34.9020077, "lon": -54.9579092, "tags": {"addr:street": "Sarand\u00ed", "amenity": "pub", "cuisine": "diner", "internet_access": "wlan", "name": "T\u00edo Jack", "opening_hours": "We-Su 22:00-04:00", "website": "http://facebook.com/tiojackbarradepicadas"}}, {"type": "node", "id": 4331552489, "lat": -34.9061238, "lon": -54.9576943, "tags": {"addr:housenumber": "01", "addr:postcode": "20000", "addr:street": "Sarand\u00ed", "name": "Sal\u00f3n Audiffred", "opening_hours": "Mo-Sa 09:00-20:00", "phone": "42254924", "shop": "toys"}}, {"type": "node", "id": 4349813793, "lat": -34.9063991, "lon": -54.9573913, "tags": {"addr:street": "Ventura Alegre", "name": "kiosco", "shop": "gift"}}, {"type": "node", "id": 4360009493, "lat": -34.9064708, "lon": -54.9569274, "tags": {"addr:street": "Ventura Alegre", "name": "jorycar", "shop": "clothes"}}, {"type": "node", "id": 4392453297, "lat": -34.9045885, "lon": -54.9567045, "tags": {"addr:street": "Doctor Rom\u00e1n Bergalli", "amenity": "dentist", "healthcare": "dentist", "name": "Dr. Juan Carlos Rojas", "name:es": "Dr. Juan Carlos Rojas", "phone": "094267903"}}, {"type": "node", "id": 4394471791, "lat": -34.9003217, "lon": -54.9563937, "tags": {"addr:street": "Agrimensor Julio Grossy", "amenity": "place_of_worship", "name": "Sal\u00f3n de los Testigos de Jehov\u00e1", "name:es": "Sal\u00f3n de los Testigos de Jehov\u00e1", "opening_hours": "We-Su 19:00-22:00"}}, {"type": "node", "id": 4487370191, "lat": -34.9021681, "lon": -54.9623052, "tags": {"addr:street": "Sol\u00eds", "name": "Marcel Santos Reparacion de Aire Acondicionado", "name:es": "Marcel Santos Reparacion de Aire Acondicionado", "shop": "electronics"}}, {"type": "node", "id": 4540008666, "lat": -34.9073633, "lon": -54.9546751}, {"type": "node", "id": 4540008667, "lat": -34.9074555, "lon": -54.9546751}, {"type": "node", "id": 4540008668, "lat": -34.9074555, "lon": -54.9546074}, {"type": "node", "id": 4540008669, "lat": -34.9074325, "lon": -54.9546074}, {"type": "node", "id": 4540008670, "lat": -34.9074325, "lon": -54.9545}, {"type": "node", "id": 4540008671, "lat": -34.9073633, "lon": -54.9545}, {"type": "node", "id": 4540024810, "lat": -34.9047861, "lon": -54.954667}, {"type": "node", "id": 4540024811, "lat": -34.9048731, "lon": -54.9546662}, {"type": "node", "id": 4540024812, "lat": -34.904872, "lon": -54.9544997}, {"type": "node", "id": 4540024813, "lat": -34.904785, "lon": -54.9545005}, {"type": "node", "id": 4540024814, "lat": -34.9050823, "lon": -54.9554261}, {"type": "node", "id": 4540024815, "lat": -34.905017, "lon": -54.9554274}, {"type": "node", "id": 4540024816, "lat": -34.9050146, "lon": -54.9552373}, {"type": "node", "id": 4540024817, "lat": -34.9050798, "lon": -54.9552361}, {"type": "node", "id": 4540024819, "lat": -34.9056976, "lon": -54.9554982}, {"type": "node", "id": 4540024820, "lat": -34.9056952, "lon": -54.9552493}, {"type": "node", "id": 4540024821, "lat": -34.9055881, "lon": -54.9552508}, {"type": "node", "id": 4540024822, "lat": -34.9058165, "lon": -54.9554817}, {"type": "node", "id": 4540024823, "lat": -34.9059098, "lon": -54.9554807}, {"type": "node", "id": 4540024824, "lat": -34.9059085, "lon": -54.9553161}, {"type": "node", "id": 4540024825, "lat": -34.9058654, "lon": -54.9553166}, {"type": "node", "id": 4540024826, "lat": -34.9058642, "lon": -54.9551583}, {"type": "node", "id": 4540024827, "lat": -34.9057713, "lon": -54.9551593}, {"type": "node", "id": 4540024828, "lat": -34.9057729, "lon": -54.9553603}, {"type": "node", "id": 4540024829, "lat": -34.9058156, "lon": -54.9553598}, {"type": "node", "id": 4540024830, "lat": -34.9064955, "lon": -54.9554503}, {"type": "node", "id": 4540024831, "lat": -34.9064933, "lon": -54.9553369}, {"type": "node", "id": 4540024832, "lat": -34.9065587, "lon": -54.9553351}, {"type": "node", "id": 4540024833, "lat": -34.9065608, "lon": -54.9554485}, {"type": "node", "id": 4540024834, "lat": -34.9068741, "lon": -54.9554623}, {"type": "node", "id": 4540024835, "lat": -34.9069214, "lon": -54.9554611}, {"type": "node", "id": 4540024836, "lat": -34.9069198, "lon": -54.9553678}, {"type": "node", "id": 4540024837, "lat": -34.9068725, "lon": -54.955369}, {"type": "node", "id": 4540024838, "lat": -34.9072405, "lon": -54.9554285, "tags": {"name": "Pedro", "shop": "yes", "source": "Reconocimiento cartogr\u00e1fico de campo 2016 por KG."}}, {"type": "node", "id": 4540157273, "lat": -34.9068726, "lon": -54.9543868}, {"type": "node", "id": 4540157274, "lat": -34.9068717, "lon": -54.9542679}, {"type": "node", "id": 4540157275, "lat": -34.9069635, "lon": -54.9542669}, {"type": "node", "id": 4540157276, "lat": -34.9069644, "lon": -54.9543857}, {"type": "node", "id": 4540157277, "lat": -34.9060483, "lon": -54.9543824}, {"type": "node", "id": 4540157278, "lat": -34.9061154, "lon": -54.9543831}, {"type": "node", "id": 4540157279, "lat": -34.9061164, "lon": -54.9542486}, {"type": "node", "id": 4540157280, "lat": -34.9060493, "lon": -54.9542479}, {"type": "node", "id": 4540157281, "lat": -34.9057978, "lon": -54.954372}, {"type": "node", "id": 4540157282, "lat": -34.9057975, "lon": -54.9542742}, {"type": "node", "id": 4540157283, "lat": -34.905596, "lon": -54.9542751}, {"type": "node", "id": 4540157284, "lat": -34.9055959, "lon": -54.9542399}, {"type": "node", "id": 4540157285, "lat": -34.9055639, "lon": -54.9542401}, {"type": "node", "id": 4540157286, "lat": -34.9055642, "lon": -54.9543438}, {"type": "node", "id": 4540157287, "lat": -34.9055722, "lon": -54.9543642}, {"type": "node", "id": 4540157288, "lat": -34.9055827, "lon": -54.9543728}, {"type": "node", "id": 4540158089, "lat": -34.9073588, "lon": -54.9556286}, {"type": "node", "id": 4540158090, "lat": -34.90743, "lon": -54.9555816}, {"type": "node", "id": 4540529263, "lat": -34.9065928, "lon": -54.9600019}, {"type": "node", "id": 4540529264, "lat": -34.9066709, "lon": -54.9600011}, {"type": "node", "id": 4540529265, "lat": -34.9066704, "lon": -54.9599327}, {"type": "node", "id": 4540529266, "lat": -34.9065923, "lon": -54.9599335}, {"type": "node", "id": 4540529267, "lat": -34.906505, "lon": -54.9599976}, {"type": "node", "id": 4540529268, "lat": -34.9065418, "lon": -54.9599966}, {"type": "node", "id": 4540529269, "lat": -34.9065409, "lon": -54.959947}, {"type": "node", "id": 4540529270, "lat": -34.9065041, "lon": -54.959948}, {"type": "node", "id": 4540531386, "lat": -34.905083, "lon": -54.9579245}, {"type": "node", "id": 4540531387, "lat": -34.9051611, "lon": -54.957923}, {"type": "node", "id": 4540531388, "lat": -34.9051601, "lon": -54.9578446}, {"type": "node", "id": 4540535721, "lat": -34.9056348, "lon": -54.9600343}, {"type": "node", "id": 4540535722, "lat": -34.9056891, "lon": -54.9600324}, {"type": "node", "id": 4540535723, "lat": -34.9056879, "lon": -54.9599815}, {"type": "node", "id": 4540535724, "lat": -34.9056336, "lon": -54.9599834}, {"type": "node", "id": 4540535725, "lat": -34.9054236, "lon": -54.9598853}, {"type": "node", "id": 4540535726, "lat": -34.9054906, "lon": -54.9598856}, {"type": "node", "id": 4540535727, "lat": -34.9054909, "lon": -54.9597871}, {"type": "node", "id": 4540535728, "lat": -34.9054239, "lon": -54.9597867}, {"type": "node", "id": 4540535729, "lat": -34.9054387, "lon": -54.9580087}, {"type": "node", "id": 4540535730, "lat": -34.9055164, "lon": -54.9580093}, {"type": "node", "id": 4540535731, "lat": -34.905514, "lon": -54.9579553}, {"type": "node", "id": 4540535732, "lat": -34.9054349, "lon": -54.9579564}, {"type": "node", "id": 4540538689, "lat": -34.905082, "lon": -54.9578461}, {"type": "node", "id": 4540538690, "lat": -34.9046763, "lon": -54.9582646}, {"type": "node", "id": 4540538691, "lat": -34.9048065, "lon": -54.9582637}, {"type": "node", "id": 4540538692, "lat": -34.9048054, "lon": -54.9580521}, {"type": "node", "id": 4540538693, "lat": -34.9049015, "lon": -54.9580514}, {"type": "node", "id": 4540538694, "lat": -34.9049002, "lon": -54.9578047}, {"type": "node", "id": 4540538695, "lat": -34.904674, "lon": -54.9578064}, {"type": "node", "id": 4540540693, "lat": -34.9054734, "lon": -54.9587577, "tags": {"addr:city": "Maldonado", "addr:street": "18 de Julio", "office": "lawyer", "source": "Reconocimiento cartogr\u00e1fico 2016 por KG."}}, {"type": "node", "id": 4540540694, "lat": -34.9056074, "lon": -54.9587575}, {"type": "node", "id": 4540540695, "lat": -34.9056603, "lon": -54.9587578}, {"type": "node", "id": 4540540696, "lat": -34.9056607, "lon": -54.9586586}, {"type": "node", "id": 4540540697, "lat": -34.9056078, "lon": -54.9586583}, {"type": "node", "id": 4540540698, "lat": -34.9058938, "lon": -54.9587562}, {"type": "node", "id": 4540540699, "lat": -34.9059969, "lon": -54.9587547}, {"type": "node", "id": 4540540700, "lat": -34.9059919, "lon": -54.9582594}, {"type": "node", "id": 4540540701, "lat": -34.9058888, "lon": -54.958261}, {"type": "node", "id": 4540540704, "lat": -34.9059959, "lon": -54.9586624}, {"type": "node", "id": 4540541708, "lat": -34.9061842, "lon": -54.9587127}, {"type": "node", "id": 4540541709, "lat": -34.9063487, "lon": -54.9587107}, {"type": "node", "id": 4540541710, "lat": -34.9063476, "lon": -54.9585774}, {"type": "node", "id": 4540541711, "lat": -34.906183, "lon": -54.9585794}, {"type": "node", "id": 4540541712, "lat": -34.9064729, "lon": -54.9587491}, {"type": "node", "id": 4540541713, "lat": -34.906618, "lon": -54.9587514}, {"type": "node", "id": 4540541714, "lat": -34.9066193, "lon": -54.9586325}, {"type": "node", "id": 4540541715, "lat": -34.9064742, "lon": -54.9586302}, {"type": "node", "id": 4540541716, "lat": -34.9069362, "lon": -54.9587426}, {"type": "node", "id": 4540541717, "lat": -34.9070073, "lon": -54.9587415}, {"type": "node", "id": 4540541718, "lat": -34.9070081, "lon": -54.9585952}, {"type": "node", "id": 4540541719, "lat": -34.9069354, "lon": -54.9585932}, {"type": "node", "id": 4540541944, "lat": -34.907441, "lon": -54.9587508}, {"type": "node", "id": 4540541945, "lat": -34.9074399, "lon": -54.9586814}, {"type": "node", "id": 4540541999, "lat": -34.9070573, "lon": -54.9587419}, {"type": "node", "id": 4540542000, "lat": -34.907058, "lon": -54.9585956}, {"type": "node", "id": 4540542001, "lat": -34.9071549, "lon": -54.9587531}, {"type": "node", "id": 4540542002, "lat": -34.9072295, "lon": -54.9587516}, {"type": "node", "id": 4540542003, "lat": -34.9072611, "lon": -54.9587146}, {"type": "node", "id": 4540542004, "lat": -34.9072625, "lon": -54.9586266}, {"type": "node", "id": 4540542005, "lat": -34.907223, "lon": -54.9586256}, {"type": "node", "id": 4540542006, "lat": -34.9072219, "lon": -54.9586931}, {"type": "node", "id": 4540542007, "lat": -34.9071562, "lon": -54.9586915}, {"type": "node", "id": 4540542008, "lat": -34.9073555, "lon": -54.9587519}, {"type": "node", "id": 4540542009, "lat": -34.9074006, "lon": -54.9587517}, {"type": "node", "id": 4540542010, "lat": -34.9073994, "lon": -54.9586824}, {"type": "node", "id": 4540542011, "lat": -34.9073548, "lon": -54.9586841}, {"type": "node", "id": 4540577020, "lat": -34.9079188, "lon": -54.9581176}, {"type": "node", "id": 4540577021, "lat": -34.9082823, "lon": -54.9581075}, {"type": "node", "id": 4540577022, "lat": -34.9082789, "lon": -54.9579777}, {"type": "node", "id": 4540577023, "lat": -34.907916, "lon": -54.9579871}, {"type": "node", "id": 4540580161, "lat": -34.907563, "lon": -54.9597868}, {"type": "node", "id": 4540580162, "lat": -34.9076153, "lon": -54.9597847}, {"type": "node", "id": 4540580163, "lat": -34.9076129, "lon": -54.9596923}, {"type": "node", "id": 4540580164, "lat": -34.9075606, "lon": -54.9596944}, {"type": "node", "id": 4540580165, "lat": -34.9064566, "lon": -54.9598351}, {"type": "node", "id": 4540580166, "lat": -34.9065091, "lon": -54.9598351}, {"type": "node", "id": 4540580167, "lat": -34.9065091, "lon": -54.9597762}, {"type": "node", "id": 4540580168, "lat": -34.9064566, "lon": -54.9597762}, {"type": "node", "id": 4540592624, "lat": -34.9063175, "lon": -54.9598208}, {"type": "node", "id": 4540592625, "lat": -34.9063683, "lon": -54.959819}, {"type": "node", "id": 4540592626, "lat": -34.9063661, "lon": -54.959729}, {"type": "node", "id": 4540592627, "lat": -34.9063153, "lon": -54.9597308}, {"type": "node", "id": 4540592628, "lat": -34.905975, "lon": -54.9598604}, {"type": "node", "id": 4540592629, "lat": -34.9060545, "lon": -54.9598591}, {"type": "node", "id": 4540592630, "lat": -34.9060539, "lon": -54.9597957}, {"type": "node", "id": 4540592631, "lat": -34.9059743, "lon": -54.9597969}, {"type": "node", "id": 4540592632, "lat": -34.9056216, "lon": -54.9598359}, {"type": "node", "id": 4540592633, "lat": -34.9057257, "lon": -54.9598365}, {"type": "node", "id": 4540592634, "lat": -34.9057261, "lon": -54.959753}, {"type": "node", "id": 4540592635, "lat": -34.9056219, "lon": -54.9597524}, {"type": "node", "id": 4540592636, "lat": -34.9056124, "lon": -54.9589491}, {"type": "node", "id": 4540592637, "lat": -34.905662, "lon": -54.9589475}, {"type": "node", "id": 4540592638, "lat": -34.9056602, "lon": -54.9588678}, {"type": "node", "id": 4540592639, "lat": -34.9056354, "lon": -54.9588686}, {"type": "node", "id": 4540592640, "lat": -34.9056112, "lon": -54.9588961}, {"type": "node", "id": 4540594688, "lat": -34.9056104, "lon": -54.958099}, {"type": "node", "id": 4540595689, "lat": -34.9058234, "lon": -54.9580965}, {"type": "node", "id": 4540595690, "lat": -34.9058212, "lon": -54.9578176}, {"type": "node", "id": 4540595691, "lat": -34.9056083, "lon": -54.95782}, {"type": "node", "id": 4540595692, "lat": -34.9045219, "lon": -54.9578752}, {"type": "node", "id": 4540595693, "lat": -34.9045788, "lon": -54.9578761}, {"type": "node", "id": 4540595694, "lat": -34.9045791, "lon": -54.957846}, {"type": "node", "id": 4540595695, "lat": -34.9045571, "lon": -54.9578205}, {"type": "node", "id": 4540595696, "lat": -34.9045231, "lon": -54.9578199}, {"type": "node", "id": 4540600608, "lat": -34.906046, "lon": -54.9589636}, {"type": "node", "id": 4540600609, "lat": -34.906138, "lon": -54.9589629}, {"type": "node", "id": 4540600610, "lat": -34.9061378, "lon": -54.9589096}, {"type": "node", "id": 4540600611, "lat": -34.9060457, "lon": -54.9589103}, {"type": "node", "id": 4540601728, "lat": -34.9065963, "lon": -54.9588621}, {"type": "node", "id": 4540601730, "lat": -34.9065963, "lon": -54.9589919}, {"type": "node", "id": 4540601731, "lat": -34.9066986, "lon": -54.9589919}, {"type": "node", "id": 4540601732, "lat": -34.9066986, "lon": -54.9588621}, {"type": "node", "id": 4540601733, "lat": -34.907259, "lon": -54.9588608}, {"type": "node", "id": 4540601734, "lat": -34.9072578, "lon": -54.9591748}, {"type": "node", "id": 4540601735, "lat": -34.9070575, "lon": -54.9591738}, {"type": "node", "id": 4540607642, "lat": -34.9073982, "lon": -54.9588869, "tags": {"addr:city": "Maldonado", "addr:street": "18 de Julio", "name": "Vintag", "shop": "clothes", "source": "Reconocimiento cartogr\u00e1fico 2016 por KG."}}, {"type": "node", "id": 4540607643, "lat": -34.9075556, "lon": -54.9589239}, {"type": "node", "id": 4540607644, "lat": -34.9076272, "lon": -54.9589228}, {"type": "node", "id": 4540607645, "lat": -34.9076264, "lon": -54.9588426}, {"type": "node", "id": 4540607646, "lat": -34.9075548, "lon": -54.9588437}, {"type": "node", "id": 4540613522, "lat": -34.907903, "lon": -54.9589902}, {"type": "node", "id": 4540613523, "lat": -34.9079892, "lon": -54.9589882}, {"type": "node", "id": 4540613524, "lat": -34.9079871, "lon": -54.958848}, {"type": "node", "id": 4540613525, "lat": -34.9079009, "lon": -54.95885}, {"type": "node", "id": 4541864220, "lat": -34.9077432, "lon": -54.9539326}, {"type": "node", "id": 4541864221, "lat": -34.907735, "lon": -54.9534306}, {"type": "node", "id": 4541864222, "lat": -34.9081495, "lon": -54.9534206}, {"type": "node", "id": 4542037219, "lat": -34.9128351, "lon": -54.9532029}, {"type": "node", "id": 4801783257, "lat": -34.9046785, "lon": -54.9506322}, {"type": "node", "id": 5352752095, "lat": -34.9026747, "lon": -54.9534893}, {"type": "node", "id": 5526308352, "lat": -34.9002697, "lon": -54.9619431}, {"type": "node", "id": 5526308353, "lat": -34.9001154, "lon": -54.9610652}, {"type": "node", "id": 5526308354, "lat": -34.9003572, "lon": -54.961146}, {"type": "node", "id": 5526308355, "lat": -34.9004562, "lon": -54.9617869}, {"type": "node", "id": 5612753922, "lat": -34.9046935, "lon": -54.9576831, "tags": {"addr:housenumber": "741", "addr:street": "Doctor Rom\u00e1n Bergalli", "amenity": "restaurant", "name": "La Tole Tole", "opening_hours": "Mo-Su 20:00-01:00", "phone": "099008666", "website": "https://www.facebook.com/latoletole741/"}}, {"type": "node", "id": 6012983320, "lat": -34.903036, "lon": -54.9536705, "tags": {"name": "Jet plotter", "shop": "yes"}}, {"type": "node", "id": 6512504347, "lat": -34.90456, "lon": -54.9578416, "tags": {"amenity": "payment_centre", "brand": "Abitab", "brand:wikidata": "Q16488129", "brand:wikipedia": "es:Abitab", "name": "Abitab"}}, {"type": "node", "id": 6871216529, "lat": -34.9082626, "lon": -54.9522453}, {"type": "node", "id": 6939566105, "lat": -34.9067121, "lon": -54.9565167, "tags": {"addr:city": "Maldonado", "addr:housenumber": "940", "addr:postcode": "20000", "addr:street": "Rom\u00e1n Guerra"}}, {"type": "node", "id": 7044891171, "lat": -34.8937936, "lon": -54.9618796}, {"type": "node", "id": 7044972999, "lat": -34.9082464, "lon": -54.9616977}, {"type": "node", "id": 7044973000, "lat": -34.9082437, "lon": -54.9615188}, {"type": "node", "id": 7319868686, "lat": -34.9048896, "lon": -54.9576143, "tags": {"addr:housenumber": "1042", "addr:postcode": "20000", "addr:street": "Sarand\u00ed", "internet_access": "wlan", "name": "The Latnok", "opening_hours": "Mo-Fr 09:00-20:00; Sa-Su 12:00-20:00", "phone": "097222970", "shop": "hairdresser"}}, {"type": "node", "id": 8332682385, "lat": -34.905338, "lon": -54.9526907}, {"type": "node", "id": 8332682386, "lat": -34.9054184, "lon": -54.9526188}, {"type": "node", "id": 8332682388, "lat": -34.9067111, "lon": -54.9523996}, {"type": "node", "id": 8332696128, "lat": -34.900616, "lon": -54.9590677}, {"type": "node", "id": 8332696136, "lat": -34.8966268, "lon": -54.9604928}, {"type": "node", "id": 9033040617, "lat": -34.90206, "lon": -54.9582312, "tags": {"amenity": "cafe", "name": "Sabores de Mam\u00e1", "opening_hours": "Mo-Sa 09:00-19:00", "phone": "+598 093 302 069", "website": "https://sabores-de-mama-cafeteria.negocio.site/"}}, {"type": "node", "id": 9117760688, "lat": -34.9079454, "lon": -54.953377}, {"type": "node", "id": 9235565408, "lat": -34.8973484, "lon": -54.9602276}, {"type": "node", "id": 10096652007, "lat": -34.907903, "lon": -54.9609498}, {"type": "node", "id": 10096652008, "lat": -34.9083431, "lon": -54.9615149}, {"type": "node", "id": 10096652009, "lat": -34.9083397, "lon": -54.9609458}, {"type": "node", "id": 10096652010, "lat": -34.908183, "lon": -54.961271}, {"type": "node", "id": 10096652011, "lat": -34.9079097, "lon": -54.9612751}, {"type": "node", "id": 10096652012, "lat": -34.907903, "lon": -54.961084}, {"type": "node", "id": 10096652013, "lat": -34.9081764, "lon": -54.9610799}, {"type": "node", "id": 10096652014, "lat": -34.907841, "lon": -54.9612783}, {"type": "node", "id": 10096658118, "lat": -34.9079071, "lon": -54.961202}, {"type": "node", "id": 11345619449, "lat": -34.904405, "lon": -54.9566063, "tags": {"entrance": "main"}}, {"type": "node", "id": 11345619450, "lat": -34.9039206, "lon": -54.9556354, "tags": {"entrance": "main"}}, {"type": "node", "id": 11405246135, "lat": -34.9037509, "lon": -54.9556749}, {"type": "node", "id": 11405246136, "lat": -34.9054483, "lon": -54.9576519}, {"type": "node", "id": 11405246137, "lat": -34.9054484, "lon": -54.9576791}, {"type": "node", "id": 11405246138, "lat": -34.9045902, "lon": -54.9565684}, {"type": "node", "id": 11405246139, "lat": -34.9045579, "lon": -54.9566055}, {"type": "node", "id": 11405246140, "lat": -34.9045911, "lon": -54.9556642}, {"type": "node", "id": 11405246141, "lat": -34.9045571, "lon": -54.9556274}, {"type": "node", "id": 11405246142, "lat": -34.9055902, "lon": -54.9554771}, {"type": "node", "id": 11405246143, "lat": -34.9056118, "lon": -54.9554994}, {"type": "node", "id": 11405246144, "lat": -34.9046497, "lon": -54.9556337}, {"type": "node", "id": 11405246153, "lat": -34.8967068, "lon": -54.9604522}, {"type": "node", "id": 11405246154, "lat": -34.8965269, "lon": -54.9605515}, {"type": "node", "id": 11405246155, "lat": -34.8961637, "lon": -54.9609018}, {"type": "node", "id": 11405278493, "lat": -34.901305, "lon": -54.9588701}, {"type": "node", "id": 11405278494, "lat": -34.9011175, "lon": -54.9588738}, {"type": "node", "id": 11405278495, "lat": -34.9001485, "lon": -54.9593753}, {"type": "node", "id": 11405278496, "lat": -34.8998768, "lon": -54.9595416}, {"type": "node", "id": 11405278499, "lat": -34.9002101, "lon": -54.9572504}, {"type": "node", "id": 11405278501, "lat": -34.8998075, "lon": -54.957939}, {"type": "node", "id": 11405405836, "lat": -34.9004119, "lon": -54.9618269}, {"type": "node", "id": 11405405837, "lat": -34.9002975, "lon": -54.9610658}, {"type": "node", "id": 11405405838, "lat": -34.9004059, "lon": -54.9614661, "tags": {"entrance": "main"}}, {"type": "node", "id": 11423712272, "lat": -34.9073669, "lon": -54.9588186, "tags": {"addr:street": "18 de Julio", "name": "forum", "opening_hours": "Mo-Su 09:00-19:30", "shop": "wholesale"}}, {"type": "node", "id": 11423714870, "lat": -34.9075019, "lon": -54.9588641, "tags": {"name": "\u00f3ptica Rinaldi", "shop": "optician"}}, {"type": "node", "id": 11423717769, "lat": -34.9075613, "lon": -54.9587433, "tags": {"name": "ame caf\u00e9", "name:en": "ame cafe", "opening_hours": "Mo 16:30-20:00,Tu-Sa 09:00-13:00, 16:30-20:00", "shop": "coffee"}}, {"type": "node", "id": 11423749369, "lat": -34.9037267, "lon": -54.9577335, "tags": {"amenity": "fast_food", "name": "el bebe comidas", "name:en": "el beb\u00e9 comidas"}}, {"type": "node", "id": 11423900269, "lat": -34.9037238, "lon": -54.9578108, "tags": {"name": "barber\u00eda", "shop": "hairdresser"}}, {"type": "node", "id": 11465784669, "lat": -34.9009131, "lon": -54.956824, "tags": {"shop": "bakery"}}, {"type": "node", "id": 11516942169, "lat": -34.905981, "lon": -54.9619677, "tags": {"amenity": "events_venue", "name": "el emporio del sabor"}}, {"type": "node", "id": 11779080427, "lat": -34.9066955, "lon": -54.9564164}, {"type": "node", "id": 11779080428, "lat": -34.9067292, "lon": -54.9564164}, {"type": "node", "id": 11779080429, "lat": -34.906728, "lon": -54.9565167}, {"type": "node", "id": 11779080430, "lat": -34.9066949, "lon": -54.9565167}, {"type": "node", "id": 11965053270, "lat": -34.9064321, "lon": -54.9578299, "tags": {"addr:housenumber": "761", "addr:postcode": "200000", "addr:street": "Ventura Alegre", "name": "SEAN", "opening_hours": "Su-Fr 10:00-18:00", "phone": "42241787", "shop": "clothes"}}, {"type": "node", "id": 11965368647, "lat": -34.9037542, "lon": -54.9560528}, {"type": "node", "id": 11965368648, "lat": -34.9039539, "lon": -54.9560514}, {"type": "node", "id": 11965368649, "lat": -34.9039544, "lon": -54.9561687}, {"type": "node", "id": 11965368945, "lat": -34.9037564, "lon": -54.9565528}, {"type": "node", "id": 11965368946, "lat": -34.9037548, "lon": -54.9561811}, {"type": "node", "id": 11965368949, "lat": -34.9037546, "lon": -54.9561383}, {"type": "node", "id": 11965368950, "lat": -34.9038704, "lon": -54.9560246}, {"type": "node", "id": 11965368951, "lat": -34.9038686, "lon": -54.9556362}, {"type": "node", "id": 11965368952, "lat": -34.903786, "lon": -54.9556368}, {"type": "node", "id": 11965368953, "lat": -34.9037877, "lon": -54.9560251}, {"type": "node", "id": 11965368958, "lat": -34.903937, "lon": -54.9560242}, {"type": "node", "id": 11965368960, "lat": -34.9042386, "lon": -54.9559156}, {"type": "node", "id": 11965368961, "lat": -34.9042377, "lon": -54.9556692}, {"type": "node", "id": 11965370408, "lat": -34.9082879, "lon": -54.9522226}, {"type": "node", "id": 11965378919, "lat": -34.9042385, "lon": -54.9558898}, {"type": "node", "id": 11965386351, "lat": -34.9054785, "lon": -54.9576285, "tags": {"amenity": "place_of_worship", "denomination": "catholic", "religion": "christian"}}, {"type": "node", "id": 12255168221, "lat": -34.9019054, "lon": -54.9544256, "tags": {"highway": "traffic_signals", "traffic_signals": "signal"}}, {"type": "node", "id": 12255168222, "lat": -34.9019396, "lon": -54.9600601, "tags": {"highway": "traffic_signals", "traffic_signals": "signal"}}, {"type": "node", "id": 12255170579, "lat": -34.9018212, "lon": -54.9545492, "tags": {"amenity": "studio", "name": "Cadena del Mar", "studio": "radio"}}, {"type": "node", "id": 12255170580, "lat": -34.9008, "lon": -54.9536624, "tags": {"shop": "car_parts"}}, {"type": "node", "id": 12255193442, "lat": -34.9000974, "lon": -54.9534204, "tags": {"amenity": "payment_centre", "name": "Red Pago"}}, {"type": "node", "id": 12256959005, "lat": -34.9011697, "lon": -54.9536628, "tags": {"shop": "pet"}}, {"type": "node", "id": 12256959006, "lat": -34.9013947, "lon": -54.9534149, "tags": {"name": "SUNCA Maldonado", "office": "union"}}, {"type": "node", "id": 12256959012, "lat": -34.9003261, "lon": -54.9534135, "tags": {"shop": "appliance"}}, {"type": "node", "id": 12256959017, "lat": -34.9074112, "lon": -54.9558642, "tags": {"shop": "motorcycle"}}, {"type": "node", "id": 12256959018, "lat": -34.9072627, "lon": -54.9558547, "tags": {"shop": "motorcycle"}}, {"type": "node", "id": 12256959019, "lat": -34.9037892, "lon": -54.9554825, "tags": {"shop": "hardware"}}, {"type": "node", "id": 12256959020, "lat": -34.9042349, "lon": -54.9536436, "tags": {"name": "BOX", "shop": "stationery"}}, {"type": "node", "id": 12256959021, "lat": -34.9074597, "lon": -54.9532439, "tags": {"second_hand": "only", "shop": "car"}}, {"type": "node", "id": 12256959022, "lat": -34.9074314, "lon": -54.9534817, "tags": {"second_hand": "only", "shop": "car"}}, {"type": "node", "id": 12256959025, "lat": -34.9065496, "lon": -54.9611427, "tags": {"name": "Muebleria El Mar", "shop": "furniture"}}, {"type": "node", "id": 12256959026, "lat": -34.9063857, "lon": -54.9611306, "tags": {"amenity": "dentist", "healthcare": "dentist", "name": "Mikaela Rodriguez"}}, {"type": "node", "id": 12256959027, "lat": -34.9063404, "lon": -54.9615282, "tags": {"name": "Sanitaria Maldonado", "shop": "trade"}}, {"type": "node", "id": 12256959028, "lat": -34.9038189, "lon": -54.9624639, "tags": {"shop": "repair"}}, {"type": "node", "id": 12256959029, "lat": -34.9040308, "lon": -54.9619613, "tags": {"name": "Barraca don Am\u00e9rico", "shop": "trade", "trade": "madera"}}, {"type": "node", "id": 12386781701, "lat": -34.9033496, "lon": -54.9565512, "tags": {"name": "la paloma", "shop": "bakery"}}, {"type": "way", "id": 117717251, "nodes": [1359994753, 2368708842, 2366581193, 2366581196, 2366581194, 1361065874, 1884963870, 1361065879, 9117760688, 1361077060, 1361065870, 2626589152, 1884963944, 1884963960, 1361065875, 1953144074, 4542037219], "tags": {"highway": "tertiary", "lanes": "2", "maxspeed": "45", "name": "Santa Teresa", "oneway": "yes", "surface": "asphalt"}}, {"type": "way", "id": 121502855, "nodes": [1360039603, 4801783257, 1325627827, 2375592990, 1886135193, 1359994753, 1884963841, 2400884037, 1884963839, 11405246144, 1884963833, 1884963831, 1884963829, 2400965137, 1360006596, 1360014923, 1884963827, 2475147417, 1360006589], "tags": {"highway": "tertiary", "lanes": "2", "name": "Doctor Rom\u00e1n Bergalli", "oneway": "yes", "surface": "asphalt"}}, {"type": "way", "id": 121506112, "nodes": [1762766185, 1762766144], "tags": {"highway": "tertiary", "name": "Avenida Juan Antonio Lavalleja", "oneway": "yes", "surface": "asphalt"}}, {"type": "way", "id": 121642590, "nodes": [1361077005, 2266533537, 7044891171, 1361077029, 2266533542, 1361077044, 1361077003, 1361077078, 1360051181, 1361077095, 1361077081, 11405246155, 1361077074, 1361077066, 11405246154, 8332696136, 11405246153, 1919675013, 2367942434, 9235565408, 1919675049, 2384920132, 2384920123, 2384920125, 2384920129, 11405278496, 1919675125, 11405278495, 1919675143, 8332696128, 1919675160, 1359997750, 11405278494, 1359997766], "tags": {"highway": "tertiary", "name": "18 de Julio", "oneway": "yes", "surface": "asphalt"}}, {"type": "way", "id": 164663486, "nodes": [1886135193, 1762766122, 1884963805, 5352752095], "tags": {"highway": "secondary", "lanes": "2", "maxspeed": "45", "name": "Avenida Jos\u00e9 Batlle y Ord\u00f3\u00f1ez", "oneway": "yes", "surface": "asphalt"}}, {"type": "way", "id": 184791612, "nodes": [1360014961, 1884963970, 1360014914, 1884963939, 1360014982, 2393826679, 1884963887, 1360006620, 1884963855, 1360006596, 1884963820, 1360006593, 2400965118, 1884963775], "tags": {"highway": "tertiary", "maxspeed": "40", "name": "Jos\u00e9 Dodera", "oneway": "yes", "surface": "asphalt"}}, {"type": "way", "id": 184791640, "nodes": [1359997766, 11405278493, 1884963764], "tags": {"highway": "tertiary", "name": "18 de Julio", "oneway": "yes", "surface": "asphalt"}}, {"type": "way", "id": 188550328, "nodes": [1884963766, 1884963762], "tags": {"highway": "tertiary", "name": "Sarand\u00ed", "oneway": "yes", "surface": "asphalt"}}, {"type": "way", "id": 227607079, "nodes": [1762766185, 1884963757, 1884963751, 1918168743, 1762766190, 1918168726, 1957709186, 2375592988, 1360039596, 1884963749, 1360039549, 1762766202, 1762766133, 1360039537, 1762766385, 2266533543, 1886135180, 1886135184, 1886135179, 1886135197], "tags": {"highway": "secondary", "lanes": "2", "maxspeed": "45", "name": "Avenida Jos\u00e9 Batlle y Ord\u00f3\u00f1ez", "oneway": "yes", "surface": "asphalt"}}, {"type": "way", "id": 227607080, "nodes": [1884963773, 1762766185], "tags": {"highway": "tertiary", "name": "Avenida Juan Antonio Lavalleja", "oneway": "yes"}}, {"type": "way", "id": 227728007, "nodes": [1884963851, 1884963831, 1884963816, 1884963798, 1884963766], "tags": {"highway": "tertiary", "name": "Sarand\u00ed", "oneway": "yes", "surface": "asphalt"}}, {"type": "way", "id": 227888269, "nodes": [2365191568, 2365191569, 2365191570, 2365191568], "tags": {"landuse": "recreation_ground", "name": "27 de noviembre de 1983"}}, {"type": "way", "id": 227891748, "nodes": [1884963787, 1762766328, 2375592989, 1359994753], "tags": {"highway": "secondary", "lanes": "2", "maxspeed": "45", "name": "Avenida Jos\u00e9 Batlle y Ord\u00f3\u00f1ez", "old_name": "Camino Vel\u00e1zquez", "oneway": "yes", "surface": "asphalt"}}, {"type": "way", "id": 227891749, "nodes": [5352752095, 1762766185], "tags": {"highway": "secondary", "maxspeed": "45", "name": "Avenida Jos\u00e9 Batlle y Ord\u00f3\u00f1ez", "oneway": "yes"}}, {"type": "way", "id": 227961167, "nodes": [2365904980, 2365904981, 2365904982, 2365904983, 2365904980], "tags": {"access": "customers", "amenity": "parking"}}, {"type": "way", "id": 227961168, "nodes": [2365904984, 2365904985, 2365904986, 2365904987, 2365904984], "tags": {"access": "customers", "amenity": "parking"}}, {"type": "way", "id": 227961169, "nodes": [2365904989, 2365904990, 4540601735, 2365904991, 2365904992, 2365904993, 2365904994, 2365904995, 2365904996, 2365904989], "tags": {"access": "customers", "amenity": "parking", "description": "Estacionamiento FIVISA"}}, {"type": "way", "id": 228022919, "nodes": [1884963779, 1359994735], "tags": {"highway": "tertiary", "name": "Avenida Juan Antonio Lavalleja", "oneway": "no", "surface": "asphalt"}}, {"type": "way", "id": 228022921, "nodes": [1884963762, 1360039539, 1359994746], "tags": {"highway": "tertiary", "name": "Sarand\u00ed", "surface": "asphalt"}}, {"type": "way", "id": 228022922, "nodes": [1884963760, 1884963769, 1884963781, 2375605876, 1884963811, 1884963839, 1884963848, 1884963869, 1884963899, 1884963923, 2626589142, 1884963935, 1884963947, 1884963964, 1884963990, 1360039538], "tags": {"highway": "tertiary", "lanes": "2", "name": "Rinc\u00f3n", "oneway": "yes", "sidewalk": "both", "surface": "asphalt"}}, {"type": "way", "id": 228904615, "nodes": [1884963773, 1884963787], "tags": {"highway": "secondary", "maxspeed": "45", "name": "Avenida Jos\u00e9 Batlle y Ord\u00f3\u00f1ez", "old_name": "Camino Vel\u00e1zquez", "oneway": "yes"}}, {"type": "way", "id": 228904616, "nodes": [1884963773, 12255168221, 1884963771, 1884963769, 1884963767, 2375593019, 1884963766], "tags": {"highway": "tertiary", "name": "Avenida Juan Antonio Lavalleja", "oneway": "no", "surface": "asphalt"}}, {"type": "way", "id": 230055787, "nodes": [1884963766, 1884963764], "tags": {"highway": "tertiary", "name": "Avenida Juan Antonio Lavalleja", "oneway": "no", "surface": "asphalt"}}, {"type": "way", "id": 230055788, "nodes": [1884963764, 12255168222, 1884963775, 1884963777, 1884963779], "tags": {"highway": "tertiary", "name": "Avenida Juan Antonio Lavalleja", "oneway": "no", "surface": "asphalt"}}, {"type": "way", "id": 230280698, "nodes": [1762766368, 1762766176, 2366581183, 1762766238, 1762766288, 1762766134, 2366581184, 1762766318, 1762766119, 1918168744, 1884963750, 1884963758, 2433131938], "tags": {"highway": "secondary", "lanes": "2", "maxspeed": "45", "name": "Avenida Jos\u00e9 Batlle y Ord\u00f3\u00f1ez", "old_name": "Camino Vel\u00e1zquez", "oneway": "yes", "surface": "asphalt"}}, {"type": "way", "id": 231438104, "nodes": [2398277712, 2398277711, 2398277710, 11405278499, 2398277712], "tags": {"landuse": "recreation_ground", "name": "Plazoleta Preb\u00edstero Juan Manresa"}}, {"type": "way", "id": 235235601, "nodes": [2433131938, 1884963773], "tags": {"highway": "secondary", "name": "Avenida Jos\u00e9 Batlle y Ord\u00f3\u00f1ez", "old_name": "Camino Vel\u00e1zquez", "oneway": "yes"}}, {"type": "way", "id": 241709255, "nodes": [2493009566, 2493009567, 2493009568, 2493009569, 2493009566], "tags": {"building": "retail", "name": "Grande Tiendas Montevideo", "shop": "clothes"}}, {"type": "way", "id": 241931176, "nodes": [2495011784, 2495011790, 2495011789, 2495011783, 2495011784], "tags": {"addr:city": "Maldonado", "addr:street": "18 de Julio", "branch": "18 de Julio", "building": "retail", "name": "El Dorado", "shop": "supermarket"}}, {"type": "way", "id": 241932185, "nodes": [2495023863, 2495023865, 2495023864, 2495023862, 2495023863], "tags": {"amenity": "marketplace", "building": "retail", "name": "Agromercado Alem\u00e1n", "shop": "greengrocer"}}, {"type": "way", "id": 241932187, "nodes": [2495023859, 2495023861, 2495023860, 2495023858, 2495023859], "tags": {"building": "retail", "name": "El Dorado _ Camino Velazquez", "shop": "supermarket"}}, {"type": "way", "id": 244831410, "nodes": [2521004492, 11965368958, 11965368950, 11965368953, 2521004489, 11965368647, 11965368949, 11965368946, 11965368945, 2521004491, 2521004493, 11965368649, 11965368648, 2521004492], "tags": {"alt_name": "Inspecci\u00f3n de Escuelas", "government": "education", "name": "ANEP", "office": "government"}}, {"type": "way", "id": 244831411, "nodes": [2521004493, 11345619449, 11405246139, 11405246138, 11405246140, 11405246141, 2521004494, 11965368961, 11965378919, 11965368960, 2521004495, 2521004492, 11965368648, 11965368649, 2521004493], "tags": {"addr:city": "Maldonado", "addr:country": "UY", "addr:state": "Maldonado", "addr:street": "Rom\u00e1n Guerra", "amenity": "school", "name": "Escuela 1 Jos\u00e9 Pedro Ram\u00edrez", "nohousenumber": "yes", "operator": "Direcci\u00f3n General de Educaci\u00f3n Inicial y Primaria", "operator:type": "public", "operator:wikidata": "Q5783994", "phone": "+598 4222 3751", "ref:UY:ruee": "1110001", "ref:UY:rule_est": "2100001", "short_name": "Escuela 1", "wikidata": "Q119824371"}}, {"type": "way", "id": 244831412, "nodes": [2521004489, 11965368953, 11965368950, 11965368958, 2521004492, 2521004495, 11965368960, 11965378919, 11965368961, 2521004494, 11345619450, 11965368951, 11965368952, 2521004490, 11405246135, 2521004489], "tags": {"addr:city": "Maldonado", "addr:country": "UY", "addr:description": "y Varela", "addr:state": "Maldonado", "addr:street": "Rinc\u00f3n", "amenity": "school", "name": "Escuela 97 Tacuab\u00e9", "nohousenumber": "yes", "operator": "Direcci\u00f3n General de Educaci\u00f3n Inicial y Primaria", "operator:type": "public", "operator:wikidata": "Q5783994", "phone": "+598 4222 7704", "ref:UY:ruee": "1110097", "ref:UY:rule_est": "2100096", "short_name": "Escuela 97", "wikidata": "Q119826950"}}, {"type": "way", "id": 244831580, "nodes": [2521006061, 2521006062, 11405246137, 11405246136, 2521006064, 2521006063, 2521006059, 2521006060, 2521006061], "tags": {"amenity": "school", "name": "Colegio de las Hermanas Capuchinas", "operator:type": "private", "religion": "christian"}}, {"type": "way", "id": 244831581, "nodes": [2521006066, 2521006072, 2521006071, 2521006065, 2521006066], "tags": {"building": "yes", "name": "Daniel Hogar", "shop": "electronics"}}, {"type": "way", "id": 244831582, "nodes": [2521006068, 2521006070, 2521006069, 2521006067, 2521006068], "tags": {"building": "yes", "name": "Daniel Hogar", "shop": "electronics"}}, {"type": "way", "id": 244832364, "nodes": [2521012415, 2521012419, 2521012418, 2521012416, 2521012417, 2521012414, 2521012415], "tags": {"addr:street": "Avenida Aigu\u00e1", "amenity": "car_wash", "name": "Gomer\u00eda Todo Crisal", "shop": "tyres"}}, {"type": "way", "id": 244832807, "nodes": [1164544879, 1360039565, 1884963980, 1884963962, 1884963943, 1884963933, 1762793799, 11965370408, 6871216529, 2395660055, 1884963910, 1884963903, 1360006660, 8332682388, 1360006616, 1961589739, 1360006643, 8332682386, 8332682385, 2368708838, 2366581187, 1886135193], "tags": {"highway": "tertiary", "lanes": "2", "name": "19 de Abril", "oneway": "yes", "surface": "asphalt"}}, {"type": "way", "id": 247579155, "nodes": [2544668107, 2544668108, 2544668109, 2544668110, 2544668107], "tags": {"building": "yes", "name": "A.D.E.O.M. Maldonado", "office": "labour_union"}}, {"type": "way", "id": 248802492, "nodes": [2555388231, 2555388232, 2555388233, 2555388234, 2555388231], "tags": {"name": "Union de Comerciantes de Maldonado", "office": "association", "website": "https://uniondecomerciantes.com.uy/"}}, {"type": "way", "id": 248803304, "nodes": [2555395591, 2555395593, 2555395595, 2555395596, 2555395591], "tags": {"building": "yes", "second_hand": "only", "shop": "car"}}, {"type": "way", "id": 248803305, "nodes": [2555395598, 4540158089, 2555395600, 4540158090, 2555395602, 2555395604, 2555395598], "tags": {"building": "retail", "shop": "furniture", "source": "Reconocimiento cartogr\u00e1fico de campo 2016 por KG."}}, {"type": "way", "id": 248803306, "nodes": [2555395606, 2555395608, 2555395609, 2555395611, 2555395606], "tags": {"building": "retail", "name": "Montossi Automoviles", "shop": "car"}}, {"type": "way", "id": 248949964, "nodes": [2556570920, 2556570922, 2556570921, 2556570917, 2556570918, 2556570919, 2556570920], "tags": {"amenity": "university", "building": "yes", "name": "CEI ORT", "source": "Reconocimiento cartogr\u00e1fico de campo 2016 por KG."}}, {"type": "way", "id": 248949965, "nodes": [2556570932, 2556570931, 2556570936, 2556570935, 2556570928, 2556570927, 2556570929, 2556570930, 2556570933, 2556570934, 2556570937, 2556570938, 2556570932], "tags": {"building": "yes", "name": "Grande Tiendas Montevideo", "shop": "clothes"}}, {"type": "way", "id": 248949966, "nodes": [2556570940, 2556570939, 2556570943, 2556570944, 2556570948, 2556570947, 2556570940], "tags": {"building": "retail", "name": "Herracor", "shop": "hardware"}}, {"type": "way", "id": 248949968, "nodes": [2556570954, 2556570953, 2556570951, 2556570952, 2556570954], "tags": {"brand": "independent", "building": "retail", "clothes": "no", "name": "Montossi Motos", "rental": "no", "repair": "no", "safety_inspection": "no", "second_hand": "yes", "shop": "motorcycle"}}, {"type": "way", "id": 248949969, "nodes": [2556570912, 2556570911, 2556570910, 2556570913, 2556570916, 2556570914, 2556570915, 2556570912], "tags": {"name": "Taller Bertolloti y P\u00e9rez", "shop": "car_repair"}}, {"type": "way", "id": 248949970, "nodes": [2556570942, 2556570941, 2556570949, 2556570950, 2556570945, 2556570946, 2556570942], "tags": {"name": "Tool Center", "shop": "garden_centre"}}, {"type": "way", "id": 266447038, "nodes": [2719988364, 2719988359, 2719988372, 2719988378, 2719988364], "tags": {"building": "residential"}}, {"type": "way", "id": 266447044, "nodes": [2719988357, 2719988362, 2719988361, 2719988355, 2719988357], "tags": {"building": "residential"}}, {"type": "way", "id": 266447045, "nodes": [2719988370, 2719988367, 2719988382, 2719988385, 2719988370], "tags": {"building": "residential"}}, {"type": "way", "id": 266447054, "nodes": [2719988329, 2719988328, 2719988345, 2719988348, 2719988329], "tags": {"building": "residential"}}, {"type": "way", "id": 266447064, "nodes": [2719988368, 2719988365, 2719988380, 2719988384, 2719988368], "tags": {"building": "residential"}}, {"type": "way", "id": 266447066, "nodes": [2719988334, 2719988331, 2719988352, 2719988354, 2719988334], "tags": {"building": "residential"}}, {"type": "way", "id": 266447070, "nodes": [2719988322, 2719988321, 2719988338, 2719988340, 2719988322], "tags": {"building": "residential"}}, {"type": "way", "id": 266447071, "nodes": [2719988350, 2719988347, 2719988366, 2719988369, 2719988350], "tags": {"building": "residential"}}, {"type": "way", "id": 266447073, "nodes": [2719988319, 2719988317, 2719988333, 2719988336, 2719988319], "tags": {"building": "residential"}}, {"type": "way", "id": 266447075, "nodes": [2719988326, 2719988324, 2719988341, 2719988343, 2719988326], "tags": {"building": "residential"}}, {"type": "way", "id": 267559662, "nodes": [2729975317, 2729975318, 2729975320, 2729975319, 2729975322, 2729975321, 2729975316, 2729975317], "tags": {"building": "residential", "name": "Edificio 18 de Julio"}}, {"type": "way", "id": 268522561, "nodes": [2738647984, 2738647983, 2738647996, 2738647995, 2738647999, 2738648000, 2738647998, 2738647997, 2738647984], "tags": {"building": "retail", "name": "Gomeria Carben", "shop": "tyres"}}, {"type": "way", "id": 406760160, "nodes": [4087954035, 4087954036, 4087954037, 7044972999, 7044973000, 4087954038, 4087954035], "tags": {"amenity": "courthouse", "building": "yes", "building:levels": "2", "name": "Poder Judicial"}}, {"type": "way", "id": 457943834, "nodes": [4540008666, 4540008667, 4540008668, 4540008669, 4540008670, 4540008671, 4540008666], "tags": {"amenity": "place_of_worship", "building": "yes", "name": "Jesucristo El Se\u00f1or", "religion": "christian", "source": "Reconocimiento cartogr\u00e1fico de campo 2016 por KG."}}, {"type": "way", "id": 457945320, "nodes": [4540024810, 4540024811, 4540024812, 4540024813, 4540024810], "tags": {"amenity": "place_of_worship", "building": "yes", "name": "Iglesia Shekyna Jesus", "religion": "christian", "source": "Reconocimiento cartogr\u00e1fico de campo 2016 por KG."}}, {"type": "way", "id": 457945321, "nodes": [4540024814, 4540024815, 4540024816, 4540024817, 4540024814], "tags": {"amenity": "place_of_worship", "building": "yes", "name": "Rey de Reyes", "religion": "christian", "source": "Reconocimiento cartogr\u00e1fico de campo 2016 por KG."}}, {"type": "way", "id": 457945322, "nodes": [11405246143, 4540024819, 4540024820, 4540024821, 11405246142, 11405246143], "tags": {"building": "yes", "name": "Consignaciones Rinc\u00f3n", "shop": "second_hand", "source": "Reconocimiento cartogr\u00e1fico de campo 2016 por KG."}}, {"type": "way", "id": 457945323, "nodes": [4540024822, 4540024823, 4540024824, 4540024825, 4540024826, 4540024827, 4540024828, 4540024829, 4540024822], "tags": {"building": "yes", "name": "Centro Retirados", "office": "ngo", "source": "Reconocimiento cartogr\u00e1fico de campo 2016 por KG."}}, {"type": "way", "id": 457945324, "nodes": [4540024830, 4540024831, 4540024832, 4540024833, 4540024830], "tags": {"amenity": "language_school", "building": "yes", "name": "Ingles", "source": "Reconocimiento cartogr\u00e1fico de campo 2016 por KG."}}, {"type": "way", "id": 457945325, "nodes": [4540024834, 4540024835, 4540024836, 4540024837, 4540024834], "tags": {"amenity": "language_school", "building": "yes", "name": "Instituto Michigan", "source": "Reconocimiento cartogr\u00e1fico de campo 2016 por KG."}}, {"type": "way", "id": 457959354, "nodes": [4540157273, 4540157274, 4540157275, 4540157276, 4540157273], "tags": {"amenity": "dentist", "building": "yes", "healthcare": "dentist", "source": "Reconocimiento cartogr\u00e1fico de campo 2016 por KG."}}, {"type": "way", "id": 457959355, "nodes": [4540157277, 4540157278, 4540157279, 4540157280, 4540157277], "tags": {"building": "yes", "name": "R. Bedat Carteles", "shop": "yes", "source": "Reconocimiento cartogr\u00e1fico de campo 2016 por KG."}}, {"type": "way", "id": 457959356, "nodes": [4540157281, 4540157282, 4540157283, 4540157284, 4540157285, 4540157286, 4540157287, 4540157288, 4540157281], "tags": {"building": "yes", "name": "San Car", "source": "Reconocimiento cartogr\u00e1fico de campo 2016 por KG.", "tourism": "hotel"}}, {"type": "way", "id": 457997302, "nodes": [4540529263, 4540529264, 4540529265, 4540529266, 4540529263], "tags": {"addr:city": "Maldonado", "addr:housenumber": "939", "addr:street": "Jos\u00e9 Dodera", "amenity": "restaurant", "building": "yes", "name": "Los Negros", "source": "Reconocimiento cartogr\u00e1fico 2016 por KG."}}, {"type": "way", "id": 457997303, "nodes": [4540529267, 4540529268, 4540529269, 4540529270, 4540529267], "tags": {"addr:city": "Maldonado", "addr:street": "Jos\u00e9 Dodera", "building": "yes", "name": "Cyber City", "shop": "yes", "source": "Reconocimiento cartogr\u00e1fico 2016 por KG."}}, {"type": "way", "id": 457998195, "nodes": [4540535721, 4540535722, 4540535723, 4540535724, 4540535721], "tags": {"addr:city": "Maldonado", "addr:street": "Jos\u00e9 Dodera", "amenity": "restaurant", "building": "yes", "name": "Los Pavas", "source": "Reconocimiento cartogr\u00e1fico 2016 por KG."}}, {"type": "way", "id": 457998196, "nodes": [4540535725, 4540535726, 4540535727, 4540535728, 4540535725], "tags": {"addr:city": "Maldonado", "addr:street": "Jos\u00e9 Dodera", "building": "yes", "name": "2do Piso Outlet", "shop": "furniture", "source": "Reconocimiento cartogr\u00e1fico 2016 por KG."}}, {"type": "way", "id": 457998197, "nodes": [4540535729, 4540535730, 4540535731, 4540535732, 4540535729], "tags": {"addr:city": "Maldonado", "addr:street": "Doctor Juan T. Edye", "building": "yes", "shop": "bakery", "source": "Reconocimiento cartogr\u00e1fico 2016 por KG."}},