{"version": 0.6, "generator": "Overpass API 0.7.62.5 1bd436f1", "osm3s": {"timestamp_osm_base": "2025-03-20T23:04:00Z", "copyright": "The data included in this document is from www.openstreetmap.org. The data is made available under ODbL."}, "elements": [{"type": "node", "id": 2363944519, "lat": -34.9091014, "lon": -54.9588506, "tags": {"addr:city": "Maldonado", "addr:street": "18 de Julio", "name": "Plaza Hotel", "source": "Reconocimiento cartogr\u00e1fico 2016 por KG.", "tourism": "hotel"}}, {"type": "node", "id": 2363944520, "lat": -34.9082308, "lon": -54.9577869, "tags": {"addr:city": "Maldonado", "addr:street": "Florida", "name": "Hotel Le Petit", "source": "Reconocimiento cartogr\u00e1fico 2016 por KG.", "tourism": "hotel"}}, {"type": "node", "id": 2363944521, "lat": -34.9075449, "lon": -54.9578419, "tags": {"name": "Este\u00f1o", "tourism": "hotel"}}, {"type": "node", "id": 2384920140, "lat": -34.9081885, "lon": -54.9592738, "tags": {"addr:city": "Maldonado", "addr:housenumber": "830", "addr:street": "Florida", "name": "Hotel Catedral", "tourism": "hotel"}}, {"type": "node", "id": 2384920141, "lat": -34.9085237, "lon": -54.9588377, "tags": {"addr:city": "Maldonado", "addr:street": "18 de Julio", "name": "Hotel Colonial", "source": "Reconocimiento cartogr\u00e1fico 2016 por KG.", "tourism": "hotel"}}, {"type": "node", "id": 2397724458, "lat": -34.9093002, "lon": -54.9598798, "tags": {"name": "Hotel 25 de mayo", "tourism": "hotel"}}]}